stop_id,stop_name,stop_lat,stop_lon
S4842,Junction 1,5.563419819,-0.152562007
S1001,Total 447,5.535621166,-0.22892572
S3829,Water Works 406,5.580180168,-0.276890993
T208,Terminal Accra Zongo Lane,5.544865131,-0.209994003
T1471,Terminal Ridge Hospital,5.562654972,-0.200297497
T75,Terminal Kaneshie Mkt Cmplx,5.565071583,-0.235920743
S5047,Fadama,5.597300053,-0.253847003
S3283,School Junction 351,5.647240162,-0.235319003
S27,College,5.583373547,-0.208371326
S4711,Ribero,5.555519581,-0.247164488
T6203,Terminal Adeiman,5.712975025,-0.369089007
S109,Sakaman Junction,5.576340199,-0.274154007
S6174,Mambolino,5.608769894,-0.242232993
S3424,Thirty Seven Station,5.586329937,-0.207726002
S3351,Container 363,5.560550213,-0.254512995
S2363,Masalachi 263,5.598390102,-0.254556
S4713,Station 538,5.550590038,-0.249190003
S4120,Odorna Market,5.564640045,-0.216955006
S4323,Abossey Okai Asoredanho,5.56137991,-0.238771006
S14,Pokuase Junction,5.687701225,-0.281836122
S5885,Big Boss,5.570919991,-0.232334003
S6116,First Boutique,5.631959915,-0.140616998
S6065,Chop Bar 999,5.619019985,-0.276677012
T3062,Terminal Auntie Aku station,5.611879826,-0.284744993
S2945,Polytechnic,5.553949833,-0.204832003
S6258,Zodiac 1,5.559239864,-0.262387007
S4319,Salvation 2,5.541079998,-0.239353493
S2280,Curve 082,5.651889801,-0.129292995
T4518,Terminal Blue Lagoon,5.57123518,-0.272288501
S880,Nyamekye 2,5.602376938,-0.258795887
S4858,Total 523,5.55080986,-0.182596996
S4156,Labadi,5.563149929,-0.144141003
S620,Taifa Junction,5.648349762,-0.251258492
S5108,Curve 1 995,5.555580139,-0.244186997
T1442,Terminal Osu Blow Up,5.553462029,-0.1841815
S5248,Market 2,5.643690109,-0.237909004
S1269,Old Station 177,5.580459595,-0.2397075
S5998,Mosque,5.652969837,-0.258738995
S3649,Paloma,5.572034836,-0.205867007
S98,Brigade 064,5.541069984,-0.394706011
S6200,Donu Last Stop,5.720149994,-0.365595013
S3393,Kanda Overhead,5.577040195,-0.197044998
S633,Gaogao,5.757329941,-0.323606014
S4625,China Town,5.525559902,-0.258864999
S2952,Overhead 311,5.572309971,-0.213443995
S5320,Junction 216,5.598629951,-0.233850002
S727,Curve 116,5.644915104,0.003327
S1191,First Stop 416,5.549660206,-0.189749002
S5850,Dome New Station,5.658939838,-0.237318993
T470,Terminal Kotobabi Down Station,5.595905304,-0.20917065
T3285,Terminal Dome Station,5.641294956,-0.240016505
S150,Tabora Junction,5.618040085,-0.261530012
S5141,Circle Overhead 996,5.571320057,-0.213171005
S5126,Fire Service 521,5.531889915,-0.217129007
S3313,AMA (Abelemkpe),5.612770081,-0.221196994
S480,Flat Top,5.609479904,-0.238153502
S3584,VIP Station,5.56840992,-0.219678
S6102,Total 006,5.627649784,-0.087026902
S342,Fise - CWC,5.692989826,-0.288713008
S1816,Police Station 235,5.544209957,-0.264591008
S17,Tantra,5.640600204,-0.248839006
S1339,Total 186,5.585773468,-0.207877323
S5417,Spot M,5.550960064,-0.330206007
T3110,Terminal Accra Novotel,5.553909779,-0.204904005
S1336,Police Station 400,5.592386246,-0.204242751
S913,St. Mary's/Barber,5.536809921,-0.223590001
S3137,Flower Top,5.609570026,-0.238115996
S108,Filling Station,5.551469803,-0.32851401
S2403,Borla Junction 1,5.55112505,-0.247495502
S4526,Kaajano,5.554890156,-0.170581996
S80,Blue Kiosk 043,5.593450069,-0.233257994
S4552,Osu Presbyterian Church,5.553349972,-0.184591994
S1877,Police Station 235,5.543746948,-0.264573336
S3170,Taborah,5.61935997,-0.261900008
S5881,Grey hand,5.579269886,-0.228223994
S3672,Baatsona,5.624790192,-0.075638004
T3193,Terminal Lomnava Station,5.63572979,-0.278678
S3106,Kanda Overhead,5.577030182,-0.197106004
S504,Kissehman,5.637390137,-0.213177994
S1748,Glory Land,5.578239918,-0.257660002
S4002,Roundabout 417,5.57614994,-0.196987003
S1854,Bridge (Camara),5.536799908,-0.255804002
S4699,Happy Kids,5.555860043,-0.233351007
S242,Tesano,5.604215145,-0.225658998
S3055,Addy Junction,5.587299824,-0.265579998
S4172,Abrantie,5.588779926,-0.282139987
T133,Terminal Accra Taxi Rank,5.54820013,-0.204589501
S5315,Market 014,5.563879967,-0.211168006
S3362,Primary School,5.598999977,-0.247816995
S904,Broadcasting,5.552283287,-0.358759671
S2282,Obinim,5.673240185,-0.127177998
S5347,Police Station 015,5.674620152,-0.240916997
S414,ACP,5.68397665,-0.277105659
S5786,AMA (La),5.574480057,-0.146607995
S1655,First Yellow Shop,5.626820087,-0.298088998
S1199,North Kaneshie Junction,5.588620186,-0.233687997
S1154,Shell Filling Station 463,5.533750057,-0.237963334
S5699,Downtown,5.700660229,-0.207142994
S2407,Seven Great 265,5.557549953,-0.244495004
S749,Action Church,5.625219822,-0.170151994
S1845,IBE,5.53888464,-0.248294488
S2052,Roundabout 240,5.557059765,-0.264800519
S4153,Cold Store 428,5.59566021,-0.111961
S601,Okaiman Junction,5.728539944,-0.275866985
T4566,Terminal Alhaji Station,5.52897501,-0.247001499
S2943,Ridge 311,5.56406498,-0.201824009
S4714,Market 995,5.552393436,-0.251107991
S5631,School Junction 002,5.554979801,-0.183329001
S3527,Pre Sec,5.661870003,-0.178328499
S97,Allaboyeh,5.543230057,-0.390143007
S1579,Zongo Junction 422,5.678090096,-0.173287004
S1796,Lapaz (after traffic light),5.607319832,-0.246967003
T232,Terminal Achimota,5.62116909,-0.226021721
S642,Block Factory 105,5.755249977,-0.334529996
S5628,SSNIT 002,5.562849998,-0.181647003
S2949,Tigo 420,5.558199883,-0.205673993
T3790,Terminal Dome Railway Crossing,5.647005081,-0.236328997
S3760,Kwashieman 402,5.589834213,-0.269603997
S2825,Filling Station,5.551010132,-0.330244005
S167,Station 1 070,5.646810055,-0.134474993
S3980,Roundabout 416,5.576300144,-0.177893996
S5918,CP 050,5.577000141,-0.295888007
S3305,UPS,5.659800053,-0.166830003
S5946,Odooma Junc.,5.64056015,-0.334663004
S3601,Club Thousand,5.596109867,-0.200382993
S172,Roadside 070,5.645810127,-0.140532002
S1441,State House,5.557149887,-0.194644004
S509,Kissehman,5.637416363,-0.213015333
S4301,Abogye,5.535200119,-0.241969004
S6091,Eastwood Anaba Ministries junction,5.60863018,-0.216588005
S6109,Roadside 006,5.625040054,-0.076491997
S1815,Control,5.546485901,-0.264636278
S4904,Akoshie,5.53910017,-0.247424006
S282,Masalachi 081,5.675745487,-0.173580661
S5312,Makola,5.547369957,-0.207106993
S3361,Borla Junction 366,5.597159863,-0.245171994
T5548,Terminal Sakumono station,5.622636795,-0.069476999
S4664,Curve 2 485,5.542850018,-0.248565003
S512,University Primary,5.6426301,-0.189873993
S2351,Achimota Forest,5.620979786,-0.223636001
S1643,Station 224,5.595300198,-0.216836005
S1237,Curve 175,5.571499825,-0.232557997
S5423,Washing Bay 114,5.536640167,-0.407063991
S6206,Passengers on Board,5.712989807,-0.369120002
S6060,VRA 058,5.631239891,-0.295163989
S2731,T Garden 542,5.52753973,-0.242209002
S765,C5,5.597976685,-0.082133003
S950,Curve 146,5.556436539,-0.251239657
S2436,Bridge 267,5.542729855,-0.247437999
S4683,Korle Bu Junction 2,5.54321003,-0.241542995
S5400,Bortianor,5.547969818,-0.34867999
S4438,Police Hospital,5.568049908,-0.180698007
S783,Pig Farm Junction,5.601769924,-0.198541999
S151,Darkuman Accra Station,5.590994835,-0.252222002
S5842,T Junc. Down,5.627180099,-0.251670986
T5561,Terminal Abeka Station near Market,5.600880146,-0.239247993
S3545,Work Shop,5.685989857,-0.148166001
S3609,Shell 274,5.579490185,-0.199789003
T136,Terminal Nima Overhead Station,5.581369877,-0.198538361
S3065,Auntie Aku Junction,5.611010075,-0.279626012
S2702,Greenhand,5.582099915,-0.230398998
S6040,Appiah,5.61262989,-0.268952996
S6014,Danquah 055,5.567059994,-0.182639003
S1379,Kasadjan 1,5.585800171,-0.225481004
S3641,Road Side 394,5.601349831,-0.193591997
S3991,VRA 416,5.548810005,-0.194680005
S3147,Haatso Station,5.666994572,-0.204696998
S805,School Junction 120,5.689865112,-0.196281999
S949,Paa Willie,5.559485912,-0.25188759
S4749,Tabora Junction 2,5.621490002,-0.262739986
S4769,Awoste Kojo,5.53482008,-0.232887
S5502,CPF,5.626999855,-0.250205994
S896,Galilee,5.52658987,-0.246067002
S719,Ashiaman Overhead,5.682323456,-0.025063001
S6155,Tantra Hill,5.642839909,-0.249009997
S2364,Mambo 263,5.595769882,-0.252988011
S564,Pig Farm Down,5.598287582,-0.198231503
S375,Soldier Line,5.657149792,-0.280007988
S6104,18 Junction,5.624879837,-0.075810999
S3092,Santa Maria,5.605669975,-0.275815994
S1630,New Town 223,5.632319927,-0.314655989
S3926,Jack and Jill School,5.601980209,-0.189218
S803,Agboba,5.691740036,-0.198557004
S2938,Alajo Taxi Rank,5.598450184,-0.217003003
S4395,Sakora Junction 452,5.5791502,-0.234042004
S2380,Kofi Ne Ama,5.533120155,-0.265282005
S3278,Road Side 351,5.638549805,-0.218404993
T2596,Terminal C,5.530950069,-0.250330001
S1672,Borko Borko Junc.,5.628855228,-0.320111513
S160,Baywa,5.642350197,-0.161911994
T1288,Terminal Bubiashie Control,5.576954842,-0.2421275
T3757,Terminal Awoshie Station,5.596876621,-0.290092001
S1101,Goil 165,5.573400021,-0.249827996
S1738,Mambo 230,5.631010056,-0.285228014
S3070,Blue Kiosk 409,5.59945488,-0.272671491
S4932,Sukura Station,5.550614834,-0.249291509
S2171,Toyota 251,5.558050156,-0.222724006
S4388,Akutu Junction,5.568669796,-0.237085
S3884,Total 302,5.558130264,-0.231280327
S552,Abavana,5.59469986,-0.202178404
S2437,Radio Gold 995,5.548250198,-0.240151569
S4346,Ebenezer,5.52947998,-0.27015999
S5117,Taxi Rank 995,5.552529812,-0.249695003
S217,Circle Bus Stop,5.572816849,-0.216403663
S981,Palladium,5.541055202,-0.215388998
T2415,Terminal Afropa,5.590310097,-0.247191995
S5863,High Tension,5.61909008,-0.250019014
S2591,Loui Joe,5.536389828,-0.241166994
S3856,Kata,5.602069855,-0.259981006
S2018,Puplampu,5.632920265,-0.172707006
S69,Roadside 043,5.586800098,-0.241905004
S1699,NIC,5.614449978,-0.295964003
S2294,Two-O-Five,5.531944752,-0.253713012
S5332,School Junction 015,5.641910076,-0.238675997
S1381,Railway,5.580049992,-0.219768003
S5868,First Junc 029,5.597720146,-0.233747005
S1322,T Garden 521,5.526979923,-0.241652489
T5985,Terminal Mayera last stop,5.735089779,-0.27200301
S533,Adenta 2nd,5.667920113,-0.176650003
S5577,Railways,5.548930168,-0.210490003
S1077,Labone Junction 163,5.56344986,-0.172362998
S984,Nana Apaa,5.538320065,-0.216593996
S280,Firestone,5.671006203,-0.175265402
S5606,First Junction 029,5.596570015,-0.233335003
S3732,Nii BoiMan Station,5.60901022,-0.245757997
S3622,Junction 393,5.564519882,-0.201869994
S993,Mangoase 270,5.535639763,-0.252672344
S3386,New Town 37 Station,5.586679935,-0.206308007
S5519,Taxi Rank 311,5.592100143,-0.205401003
T212,Terminal Agege,5.529476643,-0.263656164
S3370,Nkwadum Junction,5.571181774,-0.229917496
S6192,Akotoshie,5.747900009,-0.34542501
S2515,Masalachi Second,5.581600189,-0.198678002
S4824,Pipe-Ena,5.553750038,-0.240173995
S222,Roxy,5.556745052,-0.212108001
T1184,Terminal Cantonments Station,5.577879906,-0.170826669
S2650,Martyrs Of Uganda,5.532989979,-0.237516001
S2340,Achimota Village,5.635719776,-0.214421004
S5828,Atta mills,5.658919811,-0.269663006
S529,Westlands,5.639160156,-0.209328994
S3751,Kwashieman 402,5.594586849,-0.266508341
S2810,Barclays,5.579430103,-0.228456005
S3778,First Gate 403,5.55284977,-0.214783996
S761,Mobil 118,5.579100132,-0.106559999
S2143,Quarters 306,5.582530022,-0.25157401
S1704,Station 378,5.586949825,-0.279446989
S15,Ofankor Barrier,5.657464981,-0.265434742
S1463,Parliament,5.555500031,-0.192822993
S1925,Asore Danho 264,5.570413113,-0.255351663
S1713,MMT Station,5.566999912,-0.238729
S1716,Atico,5.57404995,-0.250358999
S5300,Road Side 014,5.607110023,-0.246335998
T893,Terminal Chemuna Station,5.526189804,-0.250590857
S1582,Atomic Second,5.666510105,-0.177471995
S5972,ACP,5.667699814,-0.270334005
S868,Market 999,5.62018013,-0.276869982
S5687,Bridge 377,5.646259785,-0.210535005
S5527,Pro Credit,5.577670097,-0.212026
S500,Roundabout (Near Legon Gymnasium),5.640230179,-0.183387995
S116,Mangoase 065,5.586239815,-0.248294994
S6054,Taxi Rank 058,5.611820221,-0.268121004
T370,Terminal Asofan Station,5.654497623,-0.285153255
S3427,Tigo 331,5.557455063,-0.205655992
S2262,Airport Second,5.604640007,-0.178083003
S2149,Overhead 248,5.555500031,-0.219348997
S748,Animal husbandry,5.66091013,-0.075669996
S877,Kwashieman Station,5.593194962,-0.268802524
S1881,Maa Mercy,5.554500103,-0.264533997
S1052,Bodesh,5.596360207,-0.209834993
S1961,Chabaa,5.574834824,-0.276831508
S2790,Total 013,5.598739624,-0.2342415
S3394,Tigo 331,5.556359768,-0.205568001
S3282,Crossing,5.645929813,-0.234602004
S5389,Hong kong 017,5.601210117,-0.261182994
S1726,Pamprom 2,5.562600136,-0.231636003
S2632,Curve 146,5.556809902,-0.251152009
S5448,Toll booth,5.734089851,-0.313854992
S4280,Las Palmas,5.528759956,-0.264537007
S605,Osofoiaman,5.721690178,-0.279089987
S2852,Busia Junction,5.578380108,-0.27046901
S5289,Abeka Junction,5.598849773,-0.227821007
S5585,Old Melcom 2,5.587870121,-0.226754993
S1776,First Light 2,5.569280148,-0.242896006
S1097,Darkuman 302,5.577340126,-0.255652994
S2735,T Garden 542,5.528049946,-0.242294997
S1857,Exhibition Roundabout,5.537409782,-0.262102991
S4929,Station 538,5.550230026,-0.254437
S5791,Anofu,5.577960014,-0.139881998
T597,Terminal Adusa Quarters,5.734984875,-0.2720135
S5510,Asantewaa,5.579470158,-0.210663006
S976,Never Busy Bus Stop,5.649409771,0.023031
S3951,Jinlet Pharmacy,5.616789818,-0.182133004
S1792,Ave Maria,5.564664841,-0.267960489
S1133,MMT,5.564499855,-0.23443
S2375,Sahara 2,5.549789906,-0.264625996
S1585,Okponglo 221,5.639837742,-0.178143203
T1401,Terminal New Melcom,5.584670067,-0.221954994
T5242,Terminal B,5.657599926,-0.237396002
S4948,Cold Store 538,5.549574852,-0.255196512
S1277,"Roundabout, St. Theresa",5.572140217,-0.230822995
S1368,Kokomlemle Station,5.580339909,-0.220456004
S4254,Bawalashi 2nd,5.642199993,-0.164136007
T768,Terminal Nungua Station,5.602173805,-0.079274124
S5812,Bridge 041,5.635580063,-0.250694007
S68,School Junction 043,5.589819908,-0.243494004
S1062,Labone Junction 163,5.563980103,-0.172132999
T21,Terminal Abeka Market station,5.600393295,-0.238629167
S825,Achimota School,5.622560024,-0.219181001
T1215,Terminal Ayigbe Town,5.583000183,-0.240306005
S456,Drug Store 095,5.628590107,-0.247426003
S4670,Soko,5.545259953,-0.249432996
S766,Bank ADB (Nungua),5.600536823,-0.080138333
S2070,Light House 243,5.563010216,-0.265973985
S3715,Junction 400,5.588900089,-0.196539
S73,School Junction 492,5.570580006,-0.237598002
S346,Sarpeima Last Stop,5.72563982,-0.311227679
S312,American House Bridge,5.646850109,-0.154267997
S5949,Alavanyo,5.642610073,-0.341553986
S3899,Roadside 410,5.54982996,-0.255557001
S3813,Abelemkpe,5.609445095,-0.210431501
S1076,Junction 163,5.566239834,-0.184642002
S206,Kingsway,5.552005768,-0.210928008
S5712,Flower Pot 380,5.65831995,-0.207124501
S4876,Abolo Junction,5.540919781,-0.253389001
S2510,Gutter,5.588359833,-0.196567342
S4168,VIP,5.568359852,-0.220293
S3252,Nii Boi Station,5.608200073,-0.245400995
S4016,Noble,5.611979961,-0.123672999
S3629,Glory Oil,5.636109829,-0.102802999
S1117,Junction 166,5.555290222,-0.254702002
S5420,Dam,5.55121994,-0.369525999
S2463,Camara 270,5.535980225,-0.253683001
S4042,Ghana Blind Union,5.561530113,-0.205927998
S4855,Jokers,5.557310104,-0.165013
S590,Agboji,5.717919827,-0.281652987
S4806,Bridge 521,5.526350021,-0.249096006
S1007,Galloway,5.547564983,-0.217718005
S1220,Asore Danho 175,5.582900047,-0.241666004
S4707,Pennywise,5.552299976,-0.235088006
S3027,Ashiaman Overhead,5.682409763,-0.025575999
S1267,Junction 176,5.578999996,-0.238886997
S2263,Opeibea,5.597959995,-0.179532006
S5817,Barrier Station,5.657830238,-0.267935008
S1592,GBC,5.573400021,-0.192669496
S570,Abelemkpe,5.608970165,-0.216542006
S152,Obetsebi Roundabout,5.562355042,-0.228567004
T1043,Terminal Circle,5.569321632,-0.215880743
S6201,Kwashiekumah,5.715149879,-0.361552
S4329,Ayalolo,5.532159805,-0.248302996
S1633,Cemetery Junction,5.565539837,-0.225344002
S645,Gaogao,5.75714016,-0.323659003
S779,Home Touch,5.586850166,-0.169522002
S2254,Bawaleshie 2nd,5.641849995,-0.167061999
S706,Post Office 007,5.65117979,-0.251060992
T5735,Terminal Last stop,5.600629807,-0.292167991
S4398,Good Sheperd,5.584060192,-0.236330003
S396,No Visa,5.656040192,-0.220879003
S2442,Bubuashie Roundabout,5.57118988,-0.237531006
S5479,Market 020,5.600810051,-0.239129007
S2410,Junction 265,5.562250137,-0.237481996
S380,Spot M,5.652914047,-0.258609802
S457,Curve 095,5.625020027,-0.245709002
S6188,Sumsum Junction,5.753520012,-0.321182996
S3323,Pig Farm Down,5.599884987,-0.197266504
S1319,Korle Bu Junction 185,5.529160023,-0.228612006
S1623,Ablekuma Park,5.629380226,-0.312420994
T1497,Terminal Circle Near Las Palmas (PROTOA),5.569534779,-0.218609501
S4001,Second Gate 417,5.564189911,-0.201407999
S2451,Zongo Junction 166,5.556610107,-0.240196005
S4122,Addoemi,5.580319881,-0.107694
S3300,Book Trust,5.659780025,-0.168815002
S1015,UTC (Agbado),5.538559914,-0.215259999
S4085,Nima Roundabout 996,5.57738018,-0.200804502
S3340,T-Junction 1,5.567090034,-0.252568007
S1583,IPS Junction,5.659009933,-0.178967997
S588,Alosom,5.715879917,-0.283163995
S1887,Blue Lagoon,5.571700096,-0.272453487
T1895,Terminal Anyaa Market Station,5.59841013,-0.290522993
S6068,Container 058,5.609149933,-0.264012009
T5668,Terminal Agape Station,5.609200001,-0.329638004
S6025,Baypot,5.576010227,-0.208750993
S4686,Curve 2,5.542880058,-0.248567
S5667,Jerico,5.608829975,-0.325556993
S1320,White House 473,5.527582169,-0.236279398
S1358,Orgle Road,5.583920002,-0.234007999
S3833,Abeka Lapaz Station,5.607039928,-0.247778997
S1660,Banyard 2,5.582540035,-0.275519013
S2443,Block Factory 269,5.577330112,-0.238580003
S5688,Westland Junction,5.649909973,-0.209913999
S4638,Filling Station 535,5.547755241,-0.217776999
S4322,Flamingo 4,5.557779789,-0.239874005
S2334,Nyamekye,5.599860191,-0.255145997
S1689,Oduman,5.640439987,-0.334289014
S5099,Masalachi 994,5.528530121,-0.231544003
S3301,Estate 353,5.664470196,-0.159881994
S4851,Police Station 523,5.561510086,-0.152856007
S1464,Ridge Hosp. Taxi Rank,5.562494755,-0.200597003
S262,Champion,5.562339783,-0.210800007
T2187,Terminal Dzorwulu Station,5.617263317,-0.194658332
S427,Roundabout 094,5.657139778,-0.265024006
S5665,Agape Top Station,5.61262989,-0.314969987
S1240,Cottage,5.573880196,-0.238067999
T2196,Terminal Kokomlemle,5.573569775,-0.214977752
S3919,Legon Second 414,5.651949883,-0.180162996
S3022,Ghacem 321,5.634940147,0.005061
S5811,Washing Bay 1,5.633369923,-0.250905991
S5730,Ordorgornor school,5.589109898,-0.281928003
S4121,Labadi 1,5.560420036,-0.147723004
S4013,Masalachi 419,5.595069885,-0.122557998
S1594,Nima Police,5.573180199,-0.201092005
S5361,Ofankor Barrier,5.657820225,-0.265154988
S4797,Ama Mensah,5.528789997,-0.230493993
S4190,SCC,5.547476768,-0.338927656
T2695,Terminal North Industrial Area,5.586589813,-0.228472993
S3623,Road Side - Switzerland Embassy,5.568490028,-0.200766996
S1474,Mr. Biggs,5.56757021,-0.213321999
S660,Agyaeba,5.672190189,-0.271890014
S5572,Circle Coporative Station,5.567599773,-0.215100005
S3726,Market 401,5.627520084,-0.259274006
S711,Saint John's,5.640029907,-0.243607
S596,Block Factory Adusa,5.732335091,-0.272846013
S3888,Flamingo 3,5.557970047,-0.246512994
S4663,Adonteng,5.542779922,-0.246677995
T202,Terminal New Town Timber Market,5.583436489,-0.208276336
S6081,Museum,5.56125021,-0.206132993
S3975,Prisons 002,5.570594788,-0.180332005
S2276,Bridge 256,5.645780087,-0.144767001
S5203,John Teye 1,5.668900013,-0.271105498
S1537,Streetlight,5.599820137,-0.237550005
S100,Market 140,5.538506508,-0.400461674
S1698,Nsufa,5.617549896,-0.294488013
S5677,Up Town,5.617710114,-0.310532987
S2232,Opeibea Second,5.600689888,-0.178533003
S4097,Labadi,5.563270092,-0.143213004
S759,Lascala,5.57806015,-0.109798662
S1023,Total 302,5.558023453,-0.231263667
S5659,Apenkwa,5.610549927,-0.234539002
S1886,Chinese,5.566619873,-0.269778997
S3472,Thirty Seven,5.58757019,-0.183109999
S5336,Dome Crossing,5.651879787,-0.237408996
S5491,Dome Crossing,5.647099972,-0.236531004
S5869,Bigot,5.598869801,-0.234773993
T1360,Terminal Fadama Last Stop,5.598464966,-0.247615501
S2425,Bridge 267,5.542749882,-0.247411996
T244,Terminal Accra New Tema Station,5.548629284,-0.201708591
S1183,El wak,5.587339878,-0.174805999
S4091,Iran clinic,5.56787014,-0.216594994
S3647,IPMC,5.5728302,-0.203391999
T0,Terminal Abeka lapaz,5.607404709,-0.247031561
S1570,Shiashie,5.628201485,-0.176513627
S216,Caprice,5.584114075,-0.217199594
S887,Fire Service 139,5.533140182,-0.216262996
S1456,Parliament,5.558380127,-0.194115996
S44,Washing Bay 046,5.581094742,-0.229849502
S5213,Agogo junction,5.608240128,-0.278842986
S4564,T Garden 521,5.526983261,-0.241806
S254,Vodafone Office 203,5.572684765,-0.216400504
S4572,First Stop 473,5.530010223,-0.224565998
S5331,Park 044,5.632510185,-0.243818
S5989,Afiaman,5.710179806,-0.286455989
S143,Five 067,5.610370159,-0.261262
S643,Medie (G P R T U of T U C),5.760570049,-0.325780988
S3741,Pig Farm,5.599919796,-0.196033001
T1345,Terminal Asore Danho,5.569630146,-0.255852997
S1357,Love Community,5.577139854,-0.233756006
T3908,Terminal Agbobloshie Station No. 2,5.551459789,-0.219162002
S2721,Korle Bu Junction 2,5.543079853,-0.239847004
S4422,Circle Lido Station,5.570449829,-0.213778004
S3977,Junction 416,5.578839779,-0.173864007
S4954,Transformer 539,5.541349888,-0.254121006
S6105,Road Side 006,5.623260021,-0.073023997
S4499,Total Filling Station (Korle Bu),5.535679817,-0.229002997
S5218,Curve 039,5.608719826,-0.279531986
S724,Community 7,5.664830208,-0.00637
S33,Market 030,5.600736618,-0.239104003
S5564,Abeka Market,5.599305153,-0.236171499
S763,A Life,5.59250021,-0.093410999
S585,Transformer 104,5.708069801,-0.287039012
S1303,Pentecost 178,5.57543993,-0.244280994
S5339,Stores,5.673009872,-0.240514994
S5641,Prisons 002,5.570189953,-0.180382997
S3081,Video 325,5.601379871,-0.273768991
S3487,Airport First,5.608106613,-0.177261993
S5675,Masalachi 035,5.614210129,-0.313457012
S2594,Junction 236,5.534890175,-0.243067995
S928,Methodist 236,5.535053253,-0.243597165
S4816,One Way 1,5.537430286,-0.210029006
T900,Terminal Agbobloshie Station,5.55023241,-0.217097502
S915,Awotse Kojo,5.534739971,-0.232905
S6162,Ashiaman Overhead,5.681310177,-0.024835
S63,Lapaz Drug Store,5.606050014,-0.246895999
S475,Papaye 096,5.609099865,-0.226693004
S876,Regy's,5.595399857,-0.270307988
S1636,Overhead 248,5.555399895,-0.219120994
S5818,Atta mills,5.658939838,-0.270536005
S171,First Block Factory,5.645773411,-0.139397666
S5016,Galelia,5.539120197,-0.398003995
S1772,Odorkor 2,5.57999754,-0.263931513
S6066,School Junction 058,5.615479946,-0.274096996
S5485,Clinic,5.629650116,-0.248017997
S4029,Sankara Second,5.572579861,-0.191141993
S4543,Abotsi Hanyah,5.584799767,-0.102849998
S3,Market 005,5.599080086,-0.29073
S1865,Mama's Inn,5.554389954,-0.264468998
S4470,Police Hospital,5.568039894,-0.180858999
T865,Terminal Sowutuom Station,5.623772621,-0.282839373
S2475,Toilet Junction,5.527490139,-0.242184997
S6034,Raster,5.611259937,-0.265919
S1397,Odor Rise 201,5.573790073,-0.214902997
S320,Curve 1 082,5.64936018,-0.131569996
S503,GIMPA,5.64124012,-0.205467343
T1957,Terminal Mallam Station,5.575174332,-0.289693143
S4931,Market 995,5.552559853,-0.250259995
S3750,Lapaz Abrantea,5.605080128,-0.252775013
S4014,Block Factory 2,5.59758997,-0.118340001
S3454,Delta Capital,5.563499928,-0.206214994
S3156,Total 334,5.668039799,-0.205761999
S204,First Step,5.571509838,-0.213266
S4469,Labone Junction 456,5.571839809,-0.180034995
T2342,Terminal Haasto,5.667220116,-0.204611003
S2975,Flat Top,5.610459805,-0.233678997
S5917,Mallam 1,5.576449871,-0.290100992
S5544,Nungua Police Station,5.594749928,-0.087517001
S1954,Mallam Junction 239,5.571284771,-0.285701007
S4147,Labone,5.562240124,-0.172454
S5551,Printex,5.64027977,-0.120012999
S914,Korle Bu,5.536126614,-0.22677134
S4047,Traffic 421,5.662010193,-0.072080001
S306,Achimota Hospital,5.62706995,-0.218873337
S3321,Abelemkpe,5.6073699,-0.215233997
S4030,Circle Overhead 419,5.570409775,-0.212357
S2111,13th,5.567940235,-0.27037701
S6139,Abofu,5.614719868,-0.225310996
S5375,Fise Junction,5.698219776,-0.292178988
S530,Communication,5.651949883,-0.209485993
S5124,Mary's,5.536819935,-0.223646998
S5118,Sukura Station,5.550559998,-0.249311
S593,Faase,5.723994732,-0.277043015
S1553,Caprice,5.583950043,-0.217032
S1483,PTC 208,5.567120075,-0.213284999
S1891,Station 378,5.58722353,-0.279084325
S382,Tantra Hill,5.643060207,-0.245649993
S1458,Police Headquarters,5.570469856,-0.187350005
S1767,Zongo,5.569570065,-0.330552995
S550,Abelemkpe,5.609419823,-0.212167993
T6061,Terminal Sotuom VRA,5.631390095,-0.297852993
S2057,Dela 243,5.570059776,-0.271068007
S3216,School Junction 343,5.608290195,-0.263238013
S2271,Novotel,5.553939819,-0.201441005
S2784,Presby Junction 298,5.614049911,-0.195841998
S4408,Second Gate 055,5.57310009,-0.192300007
T916,Terminal Mamprobi,5.53508997,-0.243891001
S4845,Akrowa,5.56731987,-0.149415001
S305,X'tian Village Junction,5.634160042,-0.215747997
S771,Cold Store 424,5.595365047,-0.086544998
T931,Terminal Mamprobi Camara,5.536509991,-0.255169511
S43,Swanlake,5.585100174,-0.2318625
S1739,Mensah Addo,5.633930206,-0.286830992
S6095,Manet,5.637819767,-0.126251996
S772,First Junction 424,5.588580132,-0.097741999
S946,Zongo Junction 410,5.556230068,-0.235451996
S3954,Prisons 415,5.6020298,-0.190490007
S373,Abodwese,5.656350136,-0.281841993
S5627,Food court,5.563759804,-0.181468993
S4512,Akoto Lante,5.538949966,-0.213043496
S4966,Radio Gold 535,5.547120094,-0.238397002
S5845,Mile 7 Junc.,5.635340214,-0.240319997
S2290,Vea,5.529779911,-0.263188004
S4956,IBE,5.539030075,-0.247229993
S3820,Banyard 1,5.585949898,-0.272819996
S606,New Life 104,5.71901989,-0.280846
S1359,Kelewele Junction,5.59649992,-0.245395005
S4672,Premier,5.542950153,-0.244712994
S1703,Market 005,5.599180222,-0.291146994
T3099,Terminal Rawlings Park,5.545661449,-0.207563846
S3632,Eighteen,5.624889851,-0.075966999
S1224,Faith,5.57998991,-0.246261001
S2895,Junction 308,5.579269886,-0.203353003
S1112,Japs House,5.557660103,-0.240741998
S4225,Post Office,5.540929794,-0.206825003
S2020,Banku Junction (E. Legon),5.640035152,-0.169425502
S3375,Old Store,5.587500095,-0.232782006
S5020,Weija Junction,5.556099892,-0.302581996
S4578,First Stop 473,5.530049801,-0.224265993
S3490,Ridge 256,5.561439991,-0.196046993
S964,Abossey Okai,5.559050083,-0.230194002
S5404,Quarters 071,5.536159992,-0.409036011
S762,First Junction 118,5.59044981,-0.098149002
S4843,Todjo,5.564199924,-0.151428998
S4857,Filling Station 523,5.5520401,-0.179052994
S1688,Nuumotse,5.64207983,-0.339029014
S3794,Girls Guide,5.620429993,-0.218501002
S2472,Abodwe,5.534739971,-0.242319003
S5834,Petroleum,5.62198019,-0.248962
S5327,Links garden,5.6146698,-0.246335998
S5706,Bridge,5.671750069,-0.204559997
S563,Nkansah Gyan 103,5.591460228,-0.205998003
S3585,Circle UTC Station,5.569059849,-0.216823995
S1290,Valley Inn,5.578400135,-0.244844005
S494,GIMPA,5.641303539,-0.205381334
S531,Super Market 081,5.667369843,-0.196223006
S2760,Ebony 298,5.60326004,-0.204864994
S6,Nsakina,5.657879829,-0.325033009
S608,Alosom,5.715839863,-0.283190012
S10,Manhean Junction,5.679039955,-0.350008994
S6126,Cultural Centre,5.593359947,-0.185367003
S975,Tema Newtown Bridge,5.646029949,0.019348999
S2370,Curve 240,5.567649841,-0.257666498
S1547,Tesano Junction,5.598690033,-0.223588005
S4544,Osu Anohor,5.550829887,-0.181868002
S4191,Broadcasting,5.551030159,-0.355686009
S5188,T-Junction 016,5.626560211,-0.25068
S1872,Mt. Olivet,5.56058979,-0.267468989
S2108,Roundabout 246,5.555490017,-0.264324993
S1139,Korle Bu Mobil,5.535379887,-0.229992002
S3876,Shaka Zulu,5.604839802,-0.203544006
S4773,Rainbow,5.534279823,-0.240845993
S6003,Links garden,5.614713669,-0.246333793
S802,Cemetery 050,5.693910122,-0.200424999
S3233,Kwashieman GPRTU Taxi,5.592380047,-0.268379986
S3970,Free Junction,5.55230999,-0.184409007
S96,Osiadan,5.551089764,-0.370202988
S574,St John's Dome Station,5.638999939,-0.242495
S1340,Mallam Atta,5.581384659,-0.209197506
S3395,Accra Poly,5.554103374,-0.204903334
S951,Mango,5.555830002,-0.253457993
S958,Stop/Loading Point,5.557455063,-0.239588991
S71,Olabam,5.576340199,-0.238477007
S517,Okponglo Legon Station,5.640635014,-0.179352999
S3176,Five 067,5.610519886,-0.261198997
S801,Assemblies (via. Ashongman),5.696129799,-0.202803999
S3546,Roman Junction,5.672470093,-0.164940998
S3036,Roundabout 321,5.623839855,-0.173980996
S2803,Polyclinic 302,5.536880016,-0.223369002
S53,Gyeene (onion),5.55573988,-0.226609007
S334,Fiesta Royale,5.618289948,-0.191659003
S5952,Yehowa,5.639520168,-0.350466013
T5772,Terminal H,5.606619835,-0.249810994
S4580,White House 473,5.527750015,-0.235686004
S3675,Klagon,5.663660049,-0.049862001
S830,Blue Kiosk 121,5.647630215,-0.210458994
T251,Terminal Achimota Station,5.620789051,-0.225836575
S5583,Industrial Area SSB,5.57738018,-0.223231003
S5321,Market 014,5.60064888,-0.238940001
S869,Africa,5.612420082,-0.275382012
S3406,Bukom,5.538579941,-0.211603001
S4412,Kelewele 454,5.553549767,-0.181416005
S2583,Pipe-Ena,5.553483963,-0.240147606
S2212,Brigde,5.645989895,-0.155450001
S2002,Grammer,5.566669941,-0.258441001
S3539,UPS,5.65970993,-0.166502997
S162,American House,5.648089886,-0.150451496
S3377,High Five,5.588870049,-0.236196995
S1022,UTC (Agbado),5.538020134,-0.21821101
S2287,Mamponse Station,5.528190136,-0.268341988
S5450,Toman,5.711540222,-0.304782003
T835,Terminal Haatso,5.667267323,-0.204606753
S1749,Academy,5.570310116,-0.244234994
S5829,Ofankor Barrier 041,5.658080101,-0.267064989
S1818,Market 1,5.541703224,-0.264705777
S2536,Faith School Complex,5.677810192,-0.173271999
T147,Terminal Alhaji,5.62758255,-0.261856504
S145,Sakora Junction 067,5.619269848,-0.261898011
S2641,Sempe,5.536729813,-0.238447994
S6067,Race Course,5.613639832,-0.273317009
T3302,Terminal Social Welfare,5.672035217,-0.159689501
S3658,Market 395,5.581240177,-0.197332993
S286,SDA,5.696593761,-0.171596199
S1025,Pamprom 155,5.563353539,-0.232578665
S4658,Sempe,5.538650036,-0.238875002
S1899,Mangoase 402,5.585790157,-0.277460992
S2428,Church of Christ,5.545269966,-0.249100998
S1675,Paradise,5.63504982,-0.328202993
T767,Terminal Teshie Nungua,5.602019787,-0.079204001
S2682,Palm Junction,5.588439941,-0.234181002
T5797,Terminal Tse Addo,5.587389946,-0.138276495
S3345,Old Stop,5.564400196,-0.249237999
T2285,Terminal Ebenezer,5.529564857,-0.270026505
S4527,Ako Adjei,5.555439949,-0.169099003
S1560,Flag Staff House,5.576250076,-0.187972993
S1762,Market 231,5.570930004,-0.334776014
S4437,Freedom,5.566120148,-0.181032002
S2332,Bombay,5.596079826,-0.253208011
S1387,Mallam Atta,5.581222534,-0.209367752
S3725,High Tension,5.615980148,-0.248462498
S5813,Rasta pack,5.638130188,-0.250548989
S2308,Agege,5.531829834,-0.255165994
S70,Washing Bay 043,5.586249828,-0.239628002
S3416,Last Chance,5.611750126,-0.199162006
S5063,St John's Dome Station,5.642684937,-0.238304496
S368,Phobia,5.658909798,-0.272682995
S1680,Nuumotse,5.642049789,-0.33891201
S365,Spot M,5.654083252,-0.259786993
S1736,Sowutuom,5.624889851,-0.283481985
S5963,Chop Bar 999,5.617390156,-0.276317
T2210,Terminal East Legon,5.648214817,-0.150728002
S557,New Town Mallam Atta Station,5.581580162,-0.209049001
S276,Ecobank,5.667379856,-0.199080005
S4967,Salvation,5.541870117,-0.239559993
S1745,Ice Water Junction,5.6321702,-0.298110008
S3839,McBonalds,5.590780258,-0.195865005
S3981,Aquinas,5.573979855,-0.179469004
T894,Terminal Chorkor Station,5.526236534,-0.250576839
S5734,Awoshie Market,5.598889828,-0.290782005
S5981,Osofoiaman,5.721600056,-0.279134005
S1710,Kaneshie Societe Generale,5.564310074,-0.234334007
S834,Pharmacy 380,5.660604954,-0.205947995
S5204,Tantra,5.641759872,-0.250607997
S1802,Achimota New Overhead,5.619760036,-0.230710998
S2362,Nyamekye,5.600769997,-0.255515993
S292,SDA,5.694240093,-0.171913996
S4562,Galilee,5.52720499,-0.239151001
T2838,Terminal Kwashieman Station,5.592288971,-0.268182999
S6196,Kwartema,5.735760212,-0.354041994
S3568,Shoprite,5.547639847,-0.338827014
S3540,Social Welfare 387,5.67964983,-0.160464004
S4096,U Turn,5.556139946,-0.168038994
S1093,Traffic Light 165,5.55907011,-0.230633005
S2330,Darkuman Accra Station,5.590909958,-0.252283007
S2555,Silver Cub,5.572899818,-0.206441
S5624,Acquinas,5.574319839,-0.179432005
S6219,John Teye 2,5.667429924,-0.270370007
S5262,Abrantie,5.599170208,-0.226467997
S2582,Goil 446,5.551149845,-0.240086004
S5064,Old Station 092,5.651760101,-0.237397
S5342,Kwabenya station,5.690629959,-0.247803003
S1933,Wesley Grammar,5.566649914,-0.258370519
S180,Puplampu 241,5.632410049,-0.172893003
S5933,Binto,5.586890221,-0.271600008
S4628,Sign Board 480,5.521120071,-0.265103012
T1180,Terminal Banana Inn,5.542290211,-0.255874008
T5954,Terminal Mahean Station,5.637684822,-0.352550998
S4145,First Gate 428,5.573770046,-0.193497002
S2447,Block Factory 269,5.577040195,-0.238536999
S1235,Complex,5.574854851,-0.227457494
S4186,Mens,5.557980061,-0.298078001
S2901,37 Station,5.586834908,-0.207709506
S997,IBE,5.535610199,-0.247688994
S2486,Rijo,5.536280155,-0.241420999
S1690,Waakye,5.63888979,-0.332540989
S1341,Asantewa,5.576399803,-0.211023003
S2333,Masalachi 263,5.598760128,-0.254707992
S3148,Total 334,5.667520046,-0.205081999
S1321,Galilee,5.527120113,-0.239462495
S4665,Container 485,5.54418993,-0.248970494
S2037,Cocoa,5.573719978,-0.265736014
S2,Awoshie Abrantie,5.589025021,-0.282287508
S6111,Simon,5.638090134,-0.105067
S607,Agboji,5.71818018,-0.281477988
S329,Yeboah,5.635930061,-0.171911001
S4511,UGC,5.537919998,-0.218006
S3494,Cultural Centre,5.593760014,-0.186346993
S6254,Sharp Curve,5.567609787,-0.257537007
S879,Hong Kong 314,5.598136425,-0.263477325
S3083,Santa Maria,5.605840206,-0.275591999
S2026,37 Bonjour,5.591855049,-0.180871993
S3288,Dome Crossing Station,5.647530079,-0.236597002
S1327,Rayposh Hotel Junction,5.604879856,-0.216744006
S3167,Bus Stop 336,5.614640236,-0.260800987
S539,GIMPA Junction,5.63864994,-0.209677503
S153,Cold Store 223,5.55679512,-0.22191
S4964,Flats,5.547289848,-0.233390003
S2335,Abrantie,5.605153561,-0.252326012
S4541,1st Junction,5.588510036,-0.097879998
S3986,SSNIT 002,5.562796593,-0.181676
S106,SCC,5.547299862,-0.338735998
S3352,Filling Station 295,5.558949947,-0.254170001
S2547,Airport Second,5.604515076,-0.178003252
S4136,Total 425,5.587989807,-0.098701
S2414,De Mod,5.589250088,-0.241765007
T5559,Terminal Accra UTC Taxi Rank,5.547049999,-0.210448995
S5815,Income Tax,5.657209873,-0.26422599
S2293,Agege,5.531770229,-0.255201995
S2809,Dansbar,5.578149796,-0.227862999
S2763,Club Thousand,5.595860004,-0.200774997
S1890,Mangoase 402,5.585995197,-0.277008504
S402,Oman,5.655179977,-0.224114001
T1418,Terminal Novotel,5.556594849,-0.205606505
S1932,Asore Danho 264,5.570320129,-0.255401492
S5290,Total 013,5.598599911,-0.233811006
S2004,First Stop 238,5.560379982,-0.260385007
T1053,Terminal Kotobabi Police Station,5.591899872,-0.204736002
S421,Asore Danho (Fise),5.693990231,-0.289644986
T2732,Terminal Mamprobi C. Lante,5.526525021,-0.246156506
S1948,Seven Great 242,5.536399841,-0.264988989
S5291,Adom,5.599329948,-0.236504003
S173,American House,5.648324966,-0.150698006
T4020,Terminal Agblezah Station,5.617219925,-0.124894001
S2837,Odorkor Shell,5.583509922,-0.264315009
S2799,Kaneshie Polyclinic,5.574249744,-0.230603993
T4977,Terminal Zongo Junction,5.555878639,-0.240145856
S5189,Roadside 038,5.630970001,-0.252930999
S2401,Banku Junction,5.553468227,-0.247540206
S804,Fitting Shop,5.691040039,-0.197589993
S4009,Regimmanuel,5.558919907,-0.150023997
T2964,Terminal A-Lang Station,5.597819805,-0.27809
S3572,Second 388,5.535510063,-0.420085996
S1883,Capital O2,5.559513569,-0.265181005
S5136,McBonalds,5.590670109,-0.195921004
S5715,Airways,5.637209892,-0.210835993
S1278,Bridge 177,5.569099903,-0.228212997
S2318,One Way 1,5.537209988,-0.210101336
T2575,Terminal Mamponse Station,5.528269768,-0.268456012
S4875,Abolo Junction,5.541749954,-0.254857004
S4852,Road Side 523,5.560540199,-0.154897004
S6208,Donu Container,5.728899956,-0.363965988
T1207,Terminal Bubiashie Atico Station,5.569866657,-0.217506334
S4224,One Way 2,5.537509918,-0.210325003
S3061,Dela 039,5.611840248,-0.280033499
S934,Akoshie,5.535687447,-0.246251881
S1032,GLICO,5.557640076,-0.212383002
S2615,Bolgatanga,5.579979897,-0.206250995
S569,Dzorwulu Junction,5.607488155,-0.207326502
S6238,Abeka Junction,5.599450111,-0.224418998
S2129,Exhibition,5.540709972,-0.264721006
T288,Terminal Adenta Station,5.704474449,-0.16778689
T1195,Terminal Bubiashie Ayigbe Town,5.58438015,-0.240606
S5476,Abeka Junction 1,5.598929882,-0.227880001
S1764,Kawokudi 231,5.591300011,-0.190275997
S4922,Banana Inn Station,5.541846752,-0.254933327
S678,Traffic Light 112,5.686580181,-0.028991999
S4582,Galilee,5.526629925,-0.245948002
S794,Junction 120,5.678030014,-0.202519998
S2566,Methodist 260,5.534689903,-0.244497493
S5882,Filling Station 046,5.576839924,-0.227883995
S4712,Borla Junction 1,5.550704956,-0.247257993
S210,Zone Six,5.531417847,-0.257723004
S817,Kissehman,5.637499809,-0.213146001
S4402,Ridge Hosp. Taxi Rank,5.562600136,-0.200691998
S4185,Jayee,5.559000015,-0.29548499
S2954,Obuor Ba,5.577950001,-0.207826003
S617,Adenta Barrier,5.657790184,-0.265495002
S4127,Agric Bank,5.600110054,-0.080357
S2452,Pipe-Ena,5.553329945,-0.2402125
S1039,Filling Station 156,5.594150066,-0.216658011
S1870,Washing Bay 236,5.560520172,-0.266063988
S3185,Tetteh Quarshie,5.623984814,-0.173876002
S5990,Curve 052,5.707250118,-0.287126988
S2802,Igbe Town,5.554059982,-0.231578007
S5487,Mile 7 021,5.633790016,-0.241690993
S5788,Zenith,5.572760105,-0.144384995
S3094,Family and Friends,5.599380016,-0.272597998
S468,T-Junction 096,5.598693371,-0.216914669
S1439,Ridge hospital,5.561220169,-0.199328005
S5384,15th,5.626649857,-0.250559986
S4536,Teshie Gonno,5.598939896,-0.113254003
S315,Station 1,5.648469925,-0.132440999
S41,Sunlight,5.589290142,-0.232349008
S51,Kaneshie 2(Last Stop),5.565060139,-0.233454004
S4662,Premier,5.542890072,-0.244937003
S1294,Accra Academy 2,5.573709965,-0.241981
S3500,Capital lane,5.592710018,-0.203924
S4083,Nima Police Station,5.574374676,-0.200753003
S5435,Ofankor Barrier,5.657773972,-0.265314609
S441,Drug Store 095,5.625589848,-0.245804995
S758,Bush Road,5.568270206,-0.146704003
T1374,Terminal Immesco,5.590099812,-0.230920501
S5680,Sowutuom,5.625134945,-0.284380496
S3294,Legon Campus,5.642910004,-0.189678997
T4598,Terminal Appiah Danquah,5.546744823,-0.246570997
S1125,Happy Days 166,5.555990219,-0.232976004
S2422,Lotto Kiosk,5.548019886,-0.243843004
S5355,Clinic,5.629300117,-0.247913003
S2562,Roundabout Filling Station,5.562109947,-0.230497003
S5789,Exopa,5.573120117,-0.141438007
S5053,Circle Station,5.590740204,-0.252157986
T1789,Terminal Accra CMB 2,5.560070038,-0.232293993
S4278,Karikari,5.531017303,-0.26141274
S2179,Pramprom,5.563370228,-0.232653007
S926,Junction opp. Korle-Bu,5.535299778,-0.226301
T2470,Terminal Kaneshie Mamprobi Station,5.564277649,-0.236104624
T5296,Terminal G,5.601378918,-0.240334004
S973,AFKO Junction,5.642660141,0.010276
S164,American House 10th,5.64564991,-0.148684993
S4823,Zongo Market,5.552859783,-0.236936003
S158,Bawaleshie 2nd,5.642109871,-0.164863005
S4758,Datus 175,5.581989765,-0.243085995
S919,Police Station 143,5.534580231,-0.242170006
S864,Market 999,5.620769978,-0.27689451
S969,Nungua,5.610449791,-0.075448997
S2357,Abeka Lapaz Station,5.607811928,-0.24578999
S5571,Asore Danho 011,5.575719833,-0.216741994
S40,Blue Kiosk 043,5.593929768,-0.233054996
S5610,RLG building,5.577549934,-0.227660999
S5666,2nd Container,5.608819962,-0.322827011
S451,Alhaji,5.628086567,-0.261641681
S243,Achimota Old Station,5.616529942,-0.229451552
S2225,Mobil 055,5.573999882,-0.197472006
S1192,Ministries,5.548719883,-0.194670007
S5959,Heaven Church,5.626309872,-0.285452992
S2255,Bawaleshie Traffic Light,5.641160011,-0.169707
S700,Davi,5.65530014,-0.252420515
S57,Mother's Inn,5.573430061,-0.231270507
S2093,Methodist 260,5.534800053,-0.244422004
S5148,Nima Taxi Station,5.580949783,-0.199030995
S2953,Kokomlemle,5.577089787,-0.209961995
S5908,Tragic Light,5.687980175,-0.030117
S5929,Mallam,5.575799942,-0.290417999
S361,Achimota New Overhead,5.620090008,-0.230064005
S2275,American House,5.640039921,-0.144731
S4386,Cocoa Clinic,5.571760178,-0.235529006
S3952,School Junction 415,5.613180161,-0.187476993
S123,Ayigbe Town 176,5.58536005,-0.238970995
S1793,Sakaman,5.574739933,-0.274001986
S5970,ABC,5.645770073,-0.247247994
S1070,Shell 002,5.556620121,-0.182655007
S2178,Ayigbe Town 303,5.553933144,-0.231442004
S403,No Visa,5.655960083,-0.221493006
S907,Official Town,5.537819862,-0.402985334
S1878,Control,5.546048164,-0.264548838
S3308,5 5,5.590119839,-0.207202002
S2177,Junction 251,5.540289879,-0.217059001
S1214,Fitter,5.581434727,-0.23906149
S347,Toll booth,5.735859871,-0.314049989
S3458,Road side - Traffic light,5.556829929,-0.205611005
S1318,Korle Bu Junction 185,5.529689789,-0.226000994
S111,Kaneshie,5.565635204,-0.236895993
S4822,Nyame Aka,5.551949978,-0.233692005
S1806,Sakaman,5.575453281,-0.27433899
S3912,Ghana Revenue Authority,5.570859909,-0.209616005
S1056,Sunshine 400,5.594649792,-0.216799006
S453,Bridge 095,5.627089977,-0.257407993
S5927,Clinic 050,5.577149868,-0.29992801
S5474,Caprice,5.585879803,-0.217241004
T118,Terminal Darkuman Station,5.587757111,-0.251448358
S5194,ACP,5.672709942,-0.271771014
S2194,Pig Farm Down,5.598259926,-0.198370591
S4317,Agege Last Stop Station,5.529065132,-0.264222503
S4393,Council,5.575359821,-0.236368999
S3007,Legon 2nd 414,5.65184021,-0.180065006
S2851,Odorkor Station,5.580450058,-0.263725996
S1193,Tema Station,5.548600197,-0.201018006
S695,CFC,5.641489983,-0.244091004
S1640,Multimedia Group,5.577159882,-0.214512005
S1820,Exhibition,5.538067341,-0.264891744
T1558,Terminal Circle Overhead (Maame Dokono),5.56984663,-0.213341673
S3327,Agbajina,5.588210106,-0.207440004
T2694,Terminal Old Melcom 2,5.58739996,-0.226945996
S294,Oman FM,5.680930138,-0.17213051
S796,Agboba,5.693699837,-0.200329006
S4279,Agege Last Stop Station,5.529290199,-0.264021337
S6113,Marker,5.637660027,-0.126519993
S4559,First Stop 473,5.529565334,-0.226671502
T1137,Terminal Banana Inn Station,5.542500019,-0.256255001
S744,Site 10,5.651659966,-0.000237
S5084,Quarters,5.567369938,-0.249656007
S2268,Immigration,5.56276989,-0.197291002
S592,Osofoiaman,5.72258997,-0.27837801
S936,Rainbow,5.534580231,-0.241952002
S2341,Sign Board 121,5.651460171,-0.209447995
S291,Barrier Station,5.700250149,-0.171972007
S2003,Photo,5.564420223,-0.26008901
S1228,Old Station 177,5.580394745,-0.239741996
S3523,Assemblies,5.690330029,-0.171610996
S6097,Shell 006,5.640429974,-0.107697003
S4850,Junction 523,5.56772995,-0.149197996
S773,Mobil 425,5.582779884,-0.105108999
S4269,Agbogbloshie Station No. 2,5.550220013,-0.220305994
S6150,Roadside,5.656310081,-0.253259003
T3711,Terminal Alajo Station,5.592833519,-0.219887664
S1363,Abeka Primary,5.598360062,-0.247529
S1188,Koala Supermarket,5.565847874,-0.181159601
S2221,Shangrila,5.616215229,-0.176184505
S5962,Printing Press,5.623589993,-0.279623985
S2811,Peecoz,5.599140167,-0.235595003
S2595,Alhaji Station,5.531020164,-0.250270009
S3227,Kwashieman Station,5.593239784,-0.268718988
S1153,Awotse Kojo,5.534793854,-0.232909501
S5721,Mambolino,5.60860014,-0.242650002
S2200,AMA,5.591300011,-0.206321001
S1622,Ablekuma Junction,5.628260136,-0.312878013
S885,Roundabout 185,5.536355019,-0.213683009
S4101,Mobil 425,5.583426476,-0.104189336
S4944,Masalachi 538,5.545715332,-0.254152507
S458,Roundabout 095,5.622320175,-0.242314994
S2148,Overhead 248,5.556869984,-0.222041994
S828,Golf Park,5.630740166,-0.218946993
S631,Pobima,5.735459805,-0.313946992
S5746,Super bets,5.605010033,-0.252267987
S3114,Roadside 331,5.605430126,-0.245302007
S1068,Bank 002,5.56099987,-0.181933999
S2464,Mangoase 270,5.535610199,-0.251477987
S5635,Osu Presbyterian Church,5.554009914,-0.183673993
S5288,Caprice,5.58093977,-0.216803998
S3008,UPS Junction,5.660540104,-0.178235993
S5876,Drug Store 046,5.590740204,-0.232585996
S694,Saint John's Dome Station,5.637720108,-0.241751
S1364,De Mod,5.589025021,-0.240802005
S4743,Mangoase 492,5.582049847,-0.248004004
S1609,Nima Overhead Station,5.581825256,-0.198438495
S2173,LTC Last Stop,5.548900127,-0.210545003
S1317,Roundabout 185,5.535920143,-0.213750005
S313,American House,5.649179935,-0.150011003
S455,CPF,5.627490044,-0.249401003
S2189,UBA,5.611579895,-0.198684007
S908,Washing Bay 140,5.536859989,-0.406376004
S1927,Kaneshie,5.565809727,-0.236873001
S6229,Fishpond,5.618569851,-0.250005007
S987,Shell Filling Station 2 463,5.534770012,-0.233042002
S1284,Curve 177,5.552269936,-0.214835003
S3693,Abelemkpe,5.611040115,-0.218721002
S3835,Market 090,5.608580112,-0.240722999
S982,Maternity,5.538710117,-0.215875
T2674,Terminal Makola Tudu,5.547345161,-0.207045503
S5739,Barn Yard,5.584340096,-0.274493992
S4027,Labone,5.562970161,-0.173599005
S2614,Obuor Ba,5.578219891,-0.207452998
S3437,Mallam Atta Clinic,5.578100204,-0.207787007
S808,Ekumo Bridge,5.680160046,-0.202068001
S4330,Quantum Filling Station,5.532390118,-0.250941992
S1810,Capital O2,5.559689999,-0.265179008
S581,Pokuase Krom,5.69039011,-0.282869011
S5977,Afiaman,5.7084198,-0.286944002
S4943,Borla 538,5.544280052,-0.254175991
T4528,Terminal La Olympia Station,5.559885025,-0.157933503
S551,Dzorwulu Junction,5.607585907,-0.207608566
S696,Post Office 007,5.651234627,-0.250820994
S2950,Mental Hosp.,5.56359005,-0.206263006
S5825,Abordwe,5.65692997,-0.280734003
S5762,Gimpa junction,5.638679981,-0.209576994
S1615,Equip,5.570974827,-0.210402504
S6098,Korle oil,5.636099815,-0.102514997
S3630,Kotobabi,5.628684998,-0.089809
S3958,PAWA House,5.59953022,-0.194287002
S2522,Dzorwulu Junction Station,5.617473125,-0.193985671
S3657,Nima Roundabout 996,5.577809811,-0.200617
S2812,Fadama Junction,5.600619793,-0.238626003
S3684,Borla 406,5.583714962,-0.197931752
S2559,Neoplan 275,5.56870985,-0.219273001
S3284,Dome Market,5.643697262,-0.237884864
S4201,Market 436,5.588749886,-0.260580003
S3069,Jah love,5.596570015,-0.270752996
S1478,AICC,5.55535984,-0.192730993
S5407,Laststop Kasoa,5.534920216,-0.423063993
S395,Curve 2 093,5.653329849,-0.219090998
S392,Village,5.637869835,-0.217700005
S5482,Fishpond,5.618830204,-0.249906003
S4579,Awuley Quaye,5.527760029,-0.233284995
S890,Alomo,5.526867867,-0.243834198
S2541,Legon Second 414,5.648349762,-0.179824993
S3149,Cosway Junction,5.68693018,-0.194584996
S4718,Station 538,5.550519943,-0.248811007
S2955,College,5.583059788,-0.206991002
S495,Guest,5.643770218,-0.185831994
S603,Faase,5.724679947,-0.276712
S238,Tigo 331,5.557445049,-0.205691248
S2201,Abavana,5.594830036,-0.202133998
T4214,Terminal Sakaman,5.575795174,-0.274351493
S821,Station - Terminal 5,5.622089863,-0.226624995
T497,Terminal Legon Station,5.64910984,-0.179331143
S3886,Geskia,5.556369781,-0.235591993
S5784,Kpogas,5.573200226,-0.150114
S1923,First Stop 238,5.560742378,-0.260291517
S782,Accra Girls,5.598104954,-0.193379506
S6007,Baypot,5.576230049,-0.208791003
S1301,Behind Accra Academy,5.573209763,-0.241136
S2612,Curve 278,5.578479767,-0.215757996
S2647,Curve 282,5.531760216,-0.232439995
S720,Toll Gate 116,5.685299873,-0.017379001
T953,Terminal Russia,5.554395199,-0.253545001
S235,Sunny FM,5.570456505,-0.20001334
S4968,Down Right 539,5.53993988,-0.242945001
S3034,Toll Gate 321,5.634119987,-0.145785004
S2365,Alafia,5.592899799,-0.252416998
S5382,Mile 7 021,5.634583473,-0.240559995
S3851,Mambolino,5.608670235,-0.242100999
S5599,Kasadjan,5.582930088,-0.224144995
S2067,Market 243,5.57487011,-0.282207996
S4719,Circle UTC Station,5.569039822,-0.216812998
S4179,Barnyard 2,5.582729816,-0.275572985
T5685,Terminal F,5.64233017,-0.210306004
S752,Achimota Overhead,5.612814903,-0.226714253
S4483,Tigo 420,5.559350014,-0.205427006
S1813,Sahara 2,5.549752712,-0.264624
S2589,Radio Gold 995,5.548749924,-0.240271002
S1599,Maamobi (Kaneshie Station),5.59209013,-0.195451006
S505,Preparatory Sch,5.622809887,-0.219142005
S2649,Tuesday Market,5.531740189,-0.235292003
S1509,IPMC,5.571819782,-0.206973001
S177,Roadside 2 070,5.642419815,-0.162169993
S684,Overhead 1,5.612793446,-0.226944894
S4069,Legon Gate,5.649940014,-0.180199996
S6195,Fitting Shop,5.738790035,-0.353920013
T5241,Terminal Dome,5.6608634,-0.237406
S2237,Shiashie Station (Accra End of Motorway),5.627379894,-0.176017001
S3783,Market 403,5.580214977,-0.197765499
S2925,Post Office 310,5.604269981,-0.244311005
S95,Ayigbe Town (via Kasoa),5.550189972,-0.353868991
S1291,White House 178,5.576630116,-0.245676994
S611,Quarters Junction,5.70179987,-0.285611987
S832,StanChart,5.653950214,-0.208608001
S575,John Teye,5.667190075,-0.270437986
S3565,"Block Factory, Weija",5.548985004,-0.335595995
T4238,Terminal Okponglo Taxi Station,5.640751839,-0.176294001
S637,Kotoshi Number Two,5.749989986,-0.342276007
S2931,Polo Junction 345,5.598335266,-0.212207004
S1222,Vulganizer 247,5.582079887,-0.244466007
T1017,Terminal Akoto Lante,5.53889513,-0.213428505
S6063,VRA 058,5.631199837,-0.292584985
S5944,Mangoase 051,5.637589931,-0.331584007
S3412,Accra High,5.570079803,-0.200045004
S5166,Paloma,5.571750164,-0.207069993
S411,6 PS,5.620840073,-0.221440002
S2801,Mkt Roundabout,5.566249847,-0.233751997
S24,Stop A,5.585130215,-0.212859005
S2665,Korle Bu Junction 283,5.537350178,-0.220749006
S4394,Tsofi,5.577970028,-0.235465005
S5796,Junction 003,5.587039948,-0.139578998
S394,Container 093,5.643060207,-0.223236993
T1521,Terminal WAEC,5.5646348,-0.199558996
S6110,18 junction,5.625390053,-0.078327999
S4596,Salvation,5.548110008,-0.240268007
S5602,Fan Milk,5.573740005,-0.221323997
S5004,Mallam Junction 017,5.565730095,-0.288866013
S2796,Washing Bay 046,5.581970215,-0.230358005
T3264,Terminal Yellow House,5.638295174,-0.268959492
T350,Terminal A,5.735479832,-0.314134985
S838,Sign Board 121,5.652349949,-0.209073007
S5871,Market 030,5.600540161,-0.238763005
S4573,Light House 485,5.533583164,-0.211804658
S1693,Curve 227,5.627349854,-0.312215
S561,New Town Mallam Atta Station,5.582009792,-0.208782673
S310,Fiesta Royale,5.617519855,-0.193762004
T1416,Terminal UTC Station,5.56860733,-0.215996285
S4735,Station 538,5.552810192,-0.249735996
S5794,Church of Christ,5.585490227,-0.141938001
S4025,Labadi Court,5.557529926,-0.155131996
T3219,Terminal Race Course,5.613880157,-0.270780995
S1931,Hansonic,5.574510098,-0.25276801
S2528,Zongo Junction 422,5.679157734,-0.17271249
S3467,Under Bridge,5.674819946,-0.042923
S5483,T-Junction 016,5.623670101,-0.248954996
S5162,Traffic 112,5.687139988,-0.029455001
S5338,Dome New Station,5.66102012,-0.237370327
S1956,Masalachi 239,5.572850227,-0.286734998
S809,Poultry farm,5.675630093,-0.203297004
S1949,Exhibition,5.537923813,-0.264732391
S1649,COCOBOD,5.551119804,-0.210821003
S3420,Abelemkpe,5.60766983,-0.207820997
S2782,MTN Dzorwulu,5.612929821,-0.202041999
S1218,Fitter,5.581439972,-0.238964006
S3696,Kaneshie Station,5.592150211,-0.195453003
S3983,Police Station 416,5.571469784,-0.180224001
S239,Accra Poly,5.554086685,-0.204848006
S2757,MTN Dzorwulu,5.612579823,-0.202456996
S5928,Julicart,5.576469898,-0.294010013
S2697,Barclays,5.578609943,-0.227752
S247,Total 079,5.60875988,-0.226565003
S4645,Oly Dade,5.526879787,-0.254649997
S4152,Market 428,5.587440014,-0.106608003
S4203,Blue Kiosk 436,5.592179775,-0.25920099
S3315,Marwako,5.61218977,-0.225061998
S4554,Bishop,5.544198036,-0.204420194
S1370,Vodafone Office 203,5.57300663,-0.216396332
S2808,Awudome Roundabout,5.572460175,-0.230693996
S4421,Busy Internet,5.571239948,-0.210079998
S2886,Night Market 307,5.593389988,-0.203297004
S646,Samsam,5.75398016,-0.321617991
S1575,Zongo Junction 422,5.676050186,-0.173604995
S1173,Agbalolo,5.538589954,-0.215011999
S58,Masalatsi,5.583899975,-0.231236994
S1394,New Town 37 Station,5.58781004,-0.207572997
S5854,Dome Crossing,5.651159763,-0.237334996
T5344,Terminal Kwabenya,5.693600178,-0.248557001
S1808,Ave Maria,5.564829826,-0.268244654
S1758,Royals,5.563029766,-0.31695199
S1740,Junction 230,5.635980129,-0.290578991
S1064,Danquah 1st,5.566309929,-0.179095998
S227,Tudu 2nd,5.554639816,-0.208854005
S4482,Electoral Commission,5.562530041,-0.201465994
S5314,Champion,5.560460091,-0.210251004
S1535,Abeka Market,5.600759983,-0.239160255
S5682,Lapaz Community Road,5.607679844,-0.254435986
S4569,Galilee,5.527019978,-0.241896003
S3433,Cathederal,5.5625,-0.206182003
T668,Terminal Ofankor,5.657835007,-0.265362009
S3335,Lapaz Station,5.584179878,-0.208265007
S1075,Sumkam,5.560619831,-0.186796993
S3814,Akweteman,5.610779762,-0.233809993
S5947,Nyomo tse,5.64192009,-0.338735998
S5964,Rasta,5.608650208,-0.263624996
S2269,Ridge 256,5.560510159,-0.196533993
S863,Polo Junction 122,5.610614777,-0.27502799
S4895,Radio Gold 535,5.547029972,-0.239521995
S34,Eno,5.60264349,-0.241700664
S1697,Fan Milk Junction,5.621620178,-0.298802525
S833,Clinic 121,5.656633377,-0.207807004
S299,Papawo,5.667439938,-0.199338004
S1510,Overhead 419,5.570409775,-0.213056996
S957,Paa Willie,5.558859825,-0.245848
S3466,NDC,5.661920071,-0.050740998
S3413,Pig Farm Junction,5.601250172,-0.197635993
S5496,Old Station 092,5.651619911,-0.237460002
S1798,Achimota Old Station,5.616519928,-0.229473501
S5878,Swanlake,5.585080147,-0.231705993
S19,T-Junction 016,5.626877308,-0.251017988
S5795,Church of Christ,5.586319923,-0.140773997
S4675,Station 544,5.5342803,-0.237663493
S1448,Champion,5.56028986,-0.209609002
S5785,Stop D,5.572879791,-0.148876995
S2359,Traffic Light (Lapaz),5.607059956,-0.248526007
S3357,Cold Store 366,5.587480068,-0.232720003
S4646,Curve 480,5.525780201,-0.254563987
S1691,Paradise,5.632989883,-0.325542986
S2976,Overhead 2,5.612020016,-0.227523997
S4003,Police Station 417,5.575570107,-0.198506996
S5271,Total 013,5.599299908,-0.236065999
S5340,White house,5.680980206,-0.243022993
S3020,Site 10,5.65081501,0.0004795
S5337,Gym,5.656030178,-0.237296999
S4222,Korle Bu Junction 438,5.537529945,-0.221834004
T4557,Terminal Salaga Station,5.540164948,-0.209948
S3946,Roman Ridge school,5.601789951,-0.193305001
S2904,New Town Station,5.573589802,-0.214898005
S5537,La Beach,5.569369793,-0.147488996
S722,Total 321,5.682787418,-0.01410775
T2086,Terminal New Tema Station,5.548520088,-0.201551666
S5886,Socail Welfare 046,5.569139957,-0.234134004
T2062,Terminal Santa Maria,5.60525322,-0.275816669
S1201,Industrial Area,5.590710163,-0.229894996
S1734,Chop Bar 999,5.616855145,-0.276218504
S5069,Stores,5.681900024,-0.239870995
S1366,Old Melcom 2,5.587926865,-0.226910666
S1110,Gaskia,5.556359768,-0.235830501
S3105,Masalachi 331,5.5865798,-0.192782
T1028,Terminal Alajo Taxi Rank,5.595699787,-0.216952669
S2668,Akoto Lante,5.538334846,-0.213021994
S4242,NLO,5.641829967,-0.166760996
T3182,Terminal Ashaiman Overhead,5.682209969,-0.025216
T4065,Terminal D,5.706099987,-0.165349007
S4501,Korle Bu Lorry Station,5.535369873,-0.230442494
S6262,Control,5.549739838,-0.264649004
S4627,Jah Annointing,5.521369934,-0.263751
S5100,Ama Mensah,5.528800011,-0.230274007
S4162,Polyclinic 302,5.536716461,-0.223315671
S4771,Plaza 149,5.534224987,-0.235496998
S3434,Junction 376,5.568210125,-0.212286994
S32,Free Pipe,5.599830151,-0.237654999
S1061,Coffee Shop,5.567220211,-0.169447005
S3617,Ridge 393,5.560770035,-0.200941995
T28,Terminal Mallam Atta Station,5.582009792,-0.208862802
S5700,Super Markert,5.698239803,-0.204971999
S3415,King of Kings,5.612699986,-0.202280998
S760,Adoemi,5.5801301,-0.107809
T3948,Terminal Nyaho,5.617340088,-0.177080505
S1855,Mascot,5.537849903,-0.259932011
S3882,Abossey Okai,5.560655117,-0.229773
S2768,Pro Credit 1,5.576710224,-0.212709993
S2613,Challenge,5.576920033,-0.208636001
S2220,Spanner,5.620856762,-0.176243663
S4488,Nangala,5.566539764,-0.211818993
S5664,Masalachi 035,5.614079952,-0.313564986
S595,Okaiman Junction,5.728429794,-0.275881499
S2687,55,5.589049816,-0.236286998
S3943,Konca,5.596759796,-0.194845006
S445,Alhaji,5.628139973,-0.26146099
S46,Second Gate 036,5.575729847,-0.229199007
S2673,Accra Post Office,5.542719841,-0.206958503
S3868,Christ Mission,5.594719887,-0.269899994
S4739,Ako Store,5.549980164,-0.255062014
S4906,Down Right 536,5.537010193,-0.238415003
S6125,Kawokudi 076,5.594739914,-0.188537002
S819,Club House,5.627059937,-0.218972996
S4639,Market 488,5.550260067,-0.220246002
S4261,Ebenezer 260,5.529513359,-0.269887
S1323,Bridge 521,5.526370049,-0.249081999
S1747,Odorgonno,5.589795113,-0.284324497
S594,Market Mayera,5.726399899,-0.276473999
S5401,Kalabule,5.544960022,-0.38469401
S2316,Junction 262,5.525390148,-0.27125299
S820,Junction 120,5.620930195,-0.223679006
T2741,Terminal New Russia,5.558350086,-0.256927997
S4565,Santana,5.526669979,-0.247163996
S3192,Down,5.637609959,-0.278649002
S974,Fishing Harbour Near Total,5.644979954,0.014925
S367,Ofankor Barrier,5.658070087,-0.267172009
S1102,Kaneshie Societe Generale,5.564317703,-0.234364495
S4446,Legon 2nd 456,5.65666008,-0.179630995
T2197,Terminal Circle Odor Rise,5.573064804,-0.215425499
S192,Mensvic,5.636260033,-0.171895996
S3442,Topland,5.597099781,-0.199004993
S5222,Abrantie 2,5.605020046,-0.252362013
S3709,Adangme,5.593150139,-0.216691002
S5231,Vulganizer 040,5.60792017,-0.246594995
S4352,Usher Fort 447,5.540100098,-0.207544997
S4416,Sankara,5.572850227,-0.191285998
S1588,37 Bus Stop,5.591247559,-0.180975497
S2298,Roadside 260,5.533229828,-0.234994993
T1994,Terminal Nyamekye,5.601850033,-0.258944005
S50,Kaneshie 1,5.566040039,-0.233767003
S920,Timber Market,5.543149948,-0.216158003
S4067,Zongo Junction 422,5.681359768,-0.171976
T418,Terminal Fise Junction,5.698420048,-0.29216601
S340,Bokuase Junction,5.688020229,-0.282137007
S1369,Michelin,5.579189777,-0.216999993
S1189,Shell 002,5.556359768,-0.182717666
S6211,Pokuase ACP Junction,5.691589832,-0.287193
S5613,R.about,5.572130203,-0.230981007
S1992,Alafia,5.593504906,-0.252231002
S5988,Block Factory 052,5.722539902,-0.278421015
S3155,Bridge 334,5.671639919,-0.204759002
S3854,Ablekuma Station,5.606510162,-0.249800995
S5919,Clinic 050,5.577179909,-0.299510986
T183,Terminal American House,5.648157597,-0.1504745
S874,Blue Kiosk 409,5.599096775,-0.272501677
S6207,Donu Station,5.720039845,-0.365563005
S3030,Pharmacy 380,5.643189907,-0.123057999
S1584,Legon First,5.64847517,-0.17996949
S3090,Polo Junction 122,5.610569954,-0.27510199
S5705,Ecomog,5.680570126,-0.201860994
S1990,Hansonic,5.574120045,-0.252914995
S3204,School Junction 342,5.637720108,-0.295937985
S1682,Mahean Junction,5.643445015,-0.344429493
S3381,Night Market 367,5.595900059,-0.245346993
S5674,Agape Top Station,5.612549782,-0.314853996
S3663,Legon First,5.651830196,-0.180046007
S4382,Mangoase 1,5.580070019,-0.234684005
S1608,Nima Bola,5.583660126,-0.197861999
S81,Total 011,5.597820282,-0.233523503
S1777,Graphic,5.555360317,-0.218707502
S49,Mother's Inn,5.573390007,-0.231368005
S1331,Abelemkpe,5.609379768,-0.210392997
S5710,Pharmacy 380,5.66121006,-0.205661997
S486,Flat Top,5.609119892,-0.238146603
S4015,Ebenezer 419,5.608389854,-0.122776002
S3213,Market 035,5.607415199,-0.257053494
S662,ABC,5.628890038,-0.236517504
S1279,Graphic,5.555150032,-0.218172997
S2133,Obetsebi Roundabout,5.562709808,-0.228429511
S2481,Lamptey Maamli,5.52643013,-0.248836994
S4146,Second Gate 055,5.573120117,-0.192217007
S5007,Tuba,5.546850204,-0.382531524
S1121,Road Side 166,5.553549767,-0.254296005
S1613,Paloma,5.57204628,-0.205815807
S5140,Equip,5.571010113,-0.210375994
S1095,Kaneshie,5.564229965,-0.234270006
S4703,Galloway,5.547920227,-0.217942998
S1797,Suzy,5.610839844,-0.232550994
S5025,Water Works 543,5.579510212,-0.260030001
S5733,Calvary,5.593120098,-0.288619995
S1407,Roadside 201,5.5759902,-0.213217005
S1668,Obetsebi Roundabout 1,5.560394764,-0.227679998
S6117,Roundabout Accra Mall,5.620890141,-0.173949003
S2352,Achimota New Station,5.620969772,-0.226134494
S2155,Bubiashie,5.586420059,-0.239333004
S4373,St John's 452,5.582389832,-0.235184997
S1337,Five Five,5.589693546,-0.207225129
S5378,Weija Barrier,5.657690048,-0.265659988
S267,Tesano 2nd,5.605889797,-0.225817993
S2324,Yellow House 262,5.524469852,-0.271887004
S3053,Odorkor,5.580609798,-0.262416989
S2256,East Legon,5.6394701,-0.169909999
S1619,NIC,5.613949776,-0.296222508
S1546,Caprice,5.582980156,-0.216674
S2677,Farresco,5.556439877,-0.212469995
S649,Kuntunse,5.740749836,-0.315869004
S5260,Total 011,5.598096848,-0.233128995
S4417,ABC,5.573470116,-0.192592993
T168,Terminal Adjiringanor,5.651959896,-0.131905998
S5598,Industrial Area Stanbic,5.585480213,-0.225275993
S115,STC,5.565400124,-0.225299999
S793,Road Side 120,5.668330193,-0.205669999
S1880,Sahara,5.550347328,-0.264614433
S1863,Sahara,5.550660133,-0.264483005
T2368,Terminal Hansonic,5.574454784,-0.252703503
S3162,Nii Boiman,5.607900143,-0.245762005
S1830,Total 447,5.535630226,-0.228888497
S889,Tusaami,5.526949883,-0.241805002
S3016,Roundabout 321,5.622240067,-0.178717002
S384,St John's 094,5.639953136,-0.243535995
S3441,Jakaal,5.594679832,-0.202253997
S532,Atomic Junction,5.667280197,-0.181806996
S5619,Roadside 029,5.59153986,-0.232988
S35,Post Office 310,5.603845119,-0.243565008
S2487,Korle Bu Junction 271,5.544010162,-0.240143001
S3228,Family and Freinds,5.600319862,-0.273200989
S715,On The Overhead,5.620979786,-0.231443003
S600,Block Factory Adusa Quarters,5.732279778,-0.272891998
S1038,Market 224,5.590799809,-0.216965005
S442,CPF 1,5.626860142,-0.246217996
S6136,Curve 076,5.609499931,-0.212132007
S4468,Curve 456,5.579919815,-0.175421998
S6202,Adeimah Station,5.71295023,-0.369194001
S78,Cold Store 366,5.587554932,-0.232755497
S4008,Carnival Bar & Lounge,5.557499886,-0.154306993
S4105,Cold Store 424,5.595699787,-0.085900001
S5596,Lake Side,5.591670036,-0.231723994
S555,Lapaz Station Newtown,5.58409977,-0.208233997
S3229,Drug Store 326,5.602940083,-0.274791002
S2295,Alolo,5.53237009,-0.247325003
S1542,Filling Station 216,5.577809811,-0.216790006
S1413,Nima Junction,5.578999996,-0.209078997
S1171,Post Office 172,5.542140007,-0.208721995
S3380,Last Stop 367,5.595369816,-0.242592007
T1596,Terminal Lido Terminal (Circle Overhead),5.570700169,-0.213316336
S2190,Curve 254,5.61164999,-0.199534997
S25,School Junction 030,5.585130215,-0.210003003
S1934,Zodiac 1,5.559279919,-0.262380987
S5076,Curve 092,5.690350056,-0.232125998
S387,Kingsby,5.626440048,-0.234954
S1677,Waakye,5.638944626,-0.332590491
S1065,Koala Supermarket,5.56619978,-0.181151003
S1252,Asore Danho 011,5.575449944,-0.216729
S1775,Station 231,5.570040226,-0.244179994
S5368,Amasaman,5.705959797,-0.297728002
S1239,Bishop Bubuashie,5.571489811,-0.238426328
S1302,2nd Stop Behind Accra Academy,5.573890209,-0.242329001
S4104,Brigade 424,5.593824863,-0.088997997
S688,Neoplan 114,5.624750137,-0.233282
S6198,Donu Container,5.727540016,-0.364538014
S1223,Factory,5.580725193,-0.245646
S629,Fise Junction,5.698319912,-0.291894674
S2453,Blacksmith,5.550769806,-0.240209997
S2000,Curve 240,5.567759991,-0.257095993
S3295,Okponglo Legon Station,5.640530109,-0.179353997
S1811,Roundabout 240,5.55742836,-0.264857858
S792,Plaza 120,5.65403986,-0.203503996
S1380,Roadside 193,5.577229977,-0.221138
S2328,Masalachi 240,5.582489967,-0.251672
S4952,Masalachi 539,5.54516983,-0.255495995
S698,Roadside 2 114,5.65267992,-0.250912994
S1624,Ablekuma Pharmacy,5.631800175,-0.313953012
S609,Afiaman,5.708799839,-0.286832988
S635,Medie,5.761956692,-0.325955659
T4753,Terminal Tabora Alhaji Station,5.625374794,-0.261719495
S67,New Fadama Station,5.595990181,-0.245341003
S1306,Control Junction,5.577360153,-0.242878005
S3942,Curve 415,5.595910072,-0.193901002
S487,Sue's Inn,5.610690117,-0.232867509
S271,PTC 078,5.567613125,-0.215005994
S898,Palladium,5.541196664,-0.215313007
S5071,Guest House,5.688680172,-0.231968999
S3906,Arabada,5.555419922,-0.225030005
S2903,Shell 1,5.580110073,-0.210158005
S1769,Mallam Market,5.573645115,-0.278939754
S3524,Masalachi 081,5.674389839,-0.174502
S285,Ritz,5.687570095,-0.171287999
S5672,Jerico,5.608890057,-0.326613992
S241,Abeka Junction,5.598721981,-0.223758206
S1305,Valley Inn,5.578430176,-0.244663
S6190,Kotoku Junction,5.760749817,-0.326516002
S4132,Brigade 424,5.593589783,-0.08941
S2819,Korle Bu,5.542960167,-0.226269007
S4772,Shell Filing Station 463,5.533699989,-0.237948999
S5702,Cemetery 377,5.695040226,-0.201673001
T1044,Terminal Circle Lido,5.571080208,-0.213558146
S3519,Adenta Barrier,5.699960232,-0.171721995
S5044,Market 090,5.608839989,-0.241007999
S2096,Two-O-Five,5.531944752,-0.254053265
S5328,Family Life,5.622739792,-0.248446003
T2497,Terminal Korle Bu Station,5.536646366,-0.230805472
S4553,Castle Junction,5.549739838,-0.189567998
S1562,Water Works 221,5.583300114,-0.185022995
S582,Jama Pokuase,5.692315102,-0.284218997
S2637,Footbridge 2,5.565790176,-0.236653998
S3382,Musuni,5.598760128,-0.245376006
S3223,Number 3,5.606750011,-0.254866987
S3529,Legon Gate,5.648310184,-0.179937005
S4747,Motorway,5.603789806,-0.258062989
S5644,GIS,5.581039906,-0.176084995
S5652,Kawokudi,5.594880104,-0.188779995
S5072,Mangoase 092,5.694880009,-0.235571995
S5028,Road Side 544,5.546800137,-0.240134999
S3317,Abofu Junction,5.619780064,-0.225957006
S2482,Alomo,5.526649952,-0.246168002
S1209,Estate 174,5.57461977,-0.233005002
S229,Circle Bus Stop,5.572165012,-0.216148004
S1647,Market 156,5.56291008,-0.213808998
S6035,Jedu 2,5.612130165,-0.267704993
S2708,Curve 288,5.567550182,-0.235062003
T113,Terminal Accra CMB,5.551083565,-0.213060333
S3988,Samsung,5.56208992,-0.181764007
S5269,Abeka Junction,5.598589897,-0.229278997
S3107,Accra High,5.568260193,-0.201259002
S4561,Police Station,5.527460098,-0.237062007
S4506,Abodwe,5.534540176,-0.242366493
S3643,Alaska,5.585350037,-0.197623
S1313,Arena,5.544799805,-0.216699004
S2824,White Cross,5.553510189,-0.319786012
S341,Festus,5.688010216,-0.282018989
S1625,New Town 223,5.633440018,-0.315871
S2764,Nkansah Gyan 298,5.590519905,-0.206835002
S101,Washing Bay 140,5.537789822,-0.402922988
S725,Site 7,5.65288496,-0.0008995
S676,1st Underbridge,5.67463541,-0.0439515
S5777,Aforman house,5.628859997,-0.263516009
S5847,Road Side 2 044,5.642169952,-0.238528997
T1099,Terminal Odorkor Station,5.581016064,-0.263733534
S79,Star Light,5.589409828,-0.231842995
S6012,Police Head Quarters,5.570380211,-0.187246993
T2021,Terminal Baweleshi,5.64180994,-0.167132005
S2823,Mc Carthy,5.565463543,-0.288967997
S3426,Sunny FM,5.570535183,-0.199861005
S777,Soul Clinic,5.580200195,-0.156100005
T5371,Terminal Sarpeiman,5.720089912,-0.30889599
S246,Tesano Baptist,5.601709843,-0.224957004
S5139,Nima Police Station 996,5.572979927,-0.201803997
S1795,Abrantie,5.605050087,-0.252196997
S3350,Mars,5.561989784,-0.255048007
S5,Oku Man,5.641260147,-0.330172002
S1350,Kaneshie Market Station,5.565013409,-0.23565717
S3548,Asanka Local,5.663249969,-0.164799005
S6191,Block Factory 1,5.756629944,-0.332498014
S1573,Atomic First,5.66650486,-0.17702733
S1106,New Makola No. 2 Market - Agbobloshie,5.547699928,-0.217965007
S648,Satellite,5.745870113,-0.318489999
S4684,Premier,5.543069839,-0.243277997
S5098,Awuley Quaye,5.528130054,-0.233658001
S2455,Mamprobi Polyclinic,5.538354874,-0.245033503
S1632,Awudome Roundabout,5.572965145,-0.230960503
S5362,Agya Herbal,5.672780037,-0.271714002
S4817,Usher Fort 995,5.538589954,-0.208766997
S2394,Sharp Curve,5.568190098,-0.25652501
S4525,Agric,5.547579765,-0.198998004
S4011,Block Factory 1,5.583340168,-0.130878001
S314,First Block Factory,5.645800114,-0.138042003
S795,Road Side 2 120,5.691219807,-0.198124006
S1728,Kingsway,5.552064896,-0.210975006
T2619,Terminal Bus Stop 278,5.565299988,-0.230823994
S1489,St Theresa's,5.580500126,-0.229315996
S5505,Petroleum,5.621880054,-0.250158995
S62,Abotre,5.604616642,-0.244763002
S2136,Sabolai,5.555399895,-0.226142496
S5480,Stop B,5.611670017,-0.245127007
S1388,Five Five,5.590110302,-0.207085505
S4863,Akoto Lante,5.540770054,-0.215158001
S3957,Roman Ridge School,5.601560116,-0.193608001
S4917,Abodwe,5.534589767,-0.242188007
S5663,Up Town,5.617350101,-0.310927004
T240,Terminal Tema Station,5.548916817,-0.200761333
S1122,Paa Willie,5.559710026,-0.251630992
S1611,Nima Roundabout 274,5.578080177,-0.200729996
S2981,Flat Top,5.610579967,-0.234194994
S5403,Washing Bay 017,5.536839962,-0.40633601
S4844,New Life 523,5.564919949,-0.150943995
S6076,New Town 37 Station,5.590960026,-0.206426993
S1348,Dansoman Junction 251,5.574039936,-0.252797008
S4273,Road Side 444,5.534490108,-0.244497001
S6164,General Hospital,5.679200172,-0.022384
T1081,Terminal Arena Station,5.545394897,-0.215963999
S4062,Filling Station 422,5.70002985,-0.171688005
S5779,Shell 381,5.62116003,-0.262661994
S3177,Market 035,5.607269764,-0.256835997
S4869,IBE Curve,5.53883028,-0.246566996
S1768,Mallam Junction 1,5.569220066,-0.286072344
S5398,Shoprite,5.546410084,-0.341892987
S2233,Airport First,5.60656023,-0.177268997
S4673,Salvation 2,5.543320179,-0.240124002
S52,Mosque 036,5.55862999,-0.229573995
S1673,Block Factory 051,5.632315159,-0.324696004
S1395,Total 196,5.585690022,-0.207978994
S1312,Timber Market,5.543086529,-0.21612367
S1705,Odorkor Tipper,5.578249931,-0.270165741
S2590,Sempe 2,5.537935257,-0.239466503
S4702,Market 488,5.550930023,-0.221172005
S422,Festus,5.691883564,-0.28766799
S5649,Perez,5.607069969,-0.207271993
S2672,High Street,5.541669846,-0.206407994
S5070,Obaa Ohemaa,5.68667984,-0.231637999
S947,Flamingo 2,5.559016705,-0.247248664
S326,Bawaleshie 2nd,5.642105103,-0.164885998
S5341,Market 015,5.688489914,-0.246870995
S5178,Generator,5.609179974,-0.27482301
S4786,Ussher Fort,5.538525105,-0.208803505
S4540,A Life,5.591119766,-0.093712002
S4489,Roadside 458,5.590149879,-0.207681
S5589,Washing Bay 1,5.594089985,-0.232544005
S72,Bishop Bubuashie,5.571720123,-0.238828003
S5323,New Fadaman junc.,5.600709915,-0.239057004
S775,Palm Wine 118,5.566659927,-0.145520002
T1492,Terminal Swanlake Laststop,5.584044933,-0.234067995
S5473,Shell 020,5.580979824,-0.216599002
S3956,MedLab,5.601819992,-0.193136007
S219,P.T.C,5.567580223,-0.214990005
S1867,Roundabout 240,5.556809902,-0.264656991
S5079,Mile 7 Junc. 094,5.633669853,-0.239108995
T2431,Terminal Soko Station,5.545176029,-0.252091599
S4784,Korle Bu Polyclinic,5.536680222,-0.221662
S5650,Roman Ridge,5.603189945,-0.201017007
S2797,Total 209,5.576849937,-0.227461994
S2669,Asore,5.53550005,-0.211630002
S4137,Melcom (Teshie),5.587319851,-0.099841997
S576,Agyaeba,5.672699928,-0.271723986
S553,Police Station 400,5.592577457,-0.204002753
T2166,Terminal Darkuman,5.577327728,-0.254656248
S2371,Grammer,5.566900253,-0.258246481
S1011,Total 302,5.556974888,-0.231806502
S417,Festus,5.693045139,-0.288571835
S659,White House 105,5.675300121,-0.272693992
S4188,Choice,5.552889824,-0.325132996
S287,Fili,5.700230122,-0.171587005
S871,Santa Maria,5.604489803,-0.275662005
S4815,Oceania Hotel,5.529799938,-0.225399002
T1503,Terminal Circle Overhead Station,5.569806576,-0.218012
S2600,Sempe 2,5.537895203,-0.239830986
S1377,Ghana Mart,5.589560032,-0.228224993
S3277,Rich Oil -Filling Station,5.637179852,-0.216961995
S1229,Old Melcom,5.58743,-0.227117002
S5048,Alaafia 1,5.59747982,-0.250333011
S13,Amasaman,5.704480171,-0.298622996
S2982,Akweteman,5.610129833,-0.236110002
S4265,Agbado 476,5.538559914,-0.215234995
S321,Station 1 070,5.646749973,-0.134440497
S6184,Toman,5.712170124,-0.305043995
S5054,Nyamekye 1,5.602779865,-0.256238014
T3846,Terminal Amasaman,5.705239773,-0.297951005
S3664,Atomic Second,5.66779995,-0.176635996
S6100,Super Market 006,5.6321702,-0.095283002
S970,Main Harbour Terminal Near Total Filling Station,5.630090237,0.004087
S4466,37 Station,5.588500023,-0.179573998
S4813,Police Station 521,5.527450085,-0.237008005
S3402,Road side - New Makola No. 2 Market,5.548260212,-0.218336999
S277,Atomic First,5.669509888,-0.178957
S493,Forestry,5.638909817,-0.209038004
S4696,Flamingo 4,5.558839798,-0.245801002
T1684,Terminal Manhean Station,5.642374992,-0.345703989
S268,Total 079,5.610569954,-0.227730006
S5790,Container 003,5.57517004,-0.139061004
S816,Palava,5.638020039,-0.211691007
S4283,Point 6,5.528260231,-0.26838401
S731,Flower Pot 116,5.629759789,-0.156362996
S2019,Road Side 241,5.636809826,-0.171628997
S770,C5,5.596950054,-0.083939001
S446,Ayigbe Town (via Tabora),5.630970001,-0.265197009
S1018,Ayigbe Town 303,5.553890228,-0.231402993
S6266,Zone Six,5.53139019,-0.257694006
S3541,Baba Yara,5.686289787,-0.156257004
S1586,Spanner,5.620863914,-0.176369205
S1717,Darkuman Junction 302,5.577233315,-0.255541325
S3824,Borla Junction 406,5.573520184,-0.287092
S614,Pokuase Police Station,5.691100121,-0.283389986
S5206,End Hor,5.621789932,-0.250182003
S2387,Roundabout ADB,5.558300018,-0.264003009
S6166,Eight,5.67320013,-0.009901
S1051,Polo Junction 345,5.598400116,-0.212234005
S3531,Shangrila,5.615980148,-0.176142007
S1205,Vodafone Office,5.573483467,-0.216525003
S1760,Weija School Junction,5.570380211,-0.331259012
S5703,Agbogba junction,5.692009926,-0.198926002
S3535,Epo,5.610139847,-0.176416993
S1741,Transformer 230,5.635779858,-0.29241699
S3944,Accra Girls,5.598120213,-0.193807498
S1149,St. Mary's/Barber,5.536846638,-0.223547339
S3349,2nd Junction,5.564469814,-0.255894989
S1333,PBC Perez Junction,5.607830048,-0.208086997
S3819,Bintu,5.58743,-0.271733999
S6246,Car pack,5.591450214,-0.219411999
S998,Methodist 236,5.535045147,-0.243683502
S3435,Circle Overhead 996,5.571229935,-0.213171005
S1612,Nima Police Station 996,5.573585033,-0.201510996
T680,Terminal Ashiaman Station,5.682084084,-0.040476601
S5629,Frankies,5.561800003,-0.181816995
S4898,Infiniti,5.539390087,-0.244655997
S405,Saw Mill,5.653289795,-0.223156005
S2373,Akukor Photo,5.563020229,-0.260300994
S4831,Road Side 522,5.550889969,-0.245974004
S3989,Papaye 002,5.559599876,-0.182211995
S378,Ofankor Barrier,5.657767296,-0.265466243
S5335,Dome Crossing,5.648550034,-0.236618996
S562,New Town 37 Station,5.587150097,-0.207655996
S2097,Zone Six,5.531425953,-0.257532209
S2567,UNC,5.532289982,-0.248253003
S82,P & P,5.599269867,-0.235973999
S1527,Cat,5.595293522,-0.221889004
S4744,Circle Station,5.591040134,-0.252252012
S583,Last Park Pokuase,5.69535017,-0.286159992
S4708,Zongo Market,5.553050041,-0.237284005
S6173,Achimota Overhead,5.611619949,-0.231194004
S682,Dzorwulu Junction Station,5.618357658,-0.191623002
S6059,Duanase 058,5.631110191,-0.290540993
T3150,Terminal Agbogba,5.691895008,-0.198717505
S3082,Drug Store,5.602980137,-0.274760991
S1096,First Light,5.569509983,-0.242753506
S1037,Caprice,5.582819939,-0.216684997
S4810,Pentecost 521,5.526329994,-0.249648005
S2247,Otanor,5.652430058,-0.129672006
S4760,School Junction 492,5.570459843,-0.237584993
S3050,Toyota 322,5.55919981,-0.225665003
S3046,Graphic,5.554140091,-0.214344993
T1206,Terminal Circle Odorna Station,5.569590092,-0.216475374
S4041,Atlantic Trafic,5.563560009,-0.201820999
S4463,Opeibea,5.598130226,-0.179566994
S2163,Quarters 249,5.572360039,-0.247289002
S214,Lotto House,5.532410145,-0.250969499
S5356,Family Life,5.623316765,-0.248861343
S5584,Industrial Area Kasadjan,5.58137989,-0.223654002
S2788,Swanlake,5.587480068,-0.232571006
S431,Achimota New Overhead,5.621220112,-0.231482998
S4031,East Cantonment Pharmacy,5.566430092,-0.214917004
S2634,Flamingo,5.559094906,-0.246307001
S3208,Mensah Addo,5.633289814,-0.283944994
S5979,Agbochi,5.717470169,-0.282018989
S6252,1 plus 1,5.569109917,-0.252317011
T3337,Terminal Mataheko New Russia Station,5.55656004,-0.257010505
S1687,Mahean Junction,5.643350124,-0.344148993
S94,Gospel Light,5.546830177,-0.345638007
S74,Akutu Junction,5.568675041,-0.237038001
S5513,Nima Junction,5.582379818,-0.208661497
S3642,Maamobi Market,5.593911171,-0.194835007
S3810,Ebony 254,5.603179932,-0.200692996
S1620,Fan Milk Junction,5.621794701,-0.298582017
S522,Christian Village Junc.,5.63504982,-0.215014994
S4467,Lands,5.584829807,-0.176260993
S3098,GCB Bank,5.546840191,-0.210584
S1566,License Office,5.592199802,-0.180574
S842,Christian Village Junc,5.634695053,-0.215396494
S860,Drug Store Junction,5.602210045,-0.274307996
S1271,Ayigbe Town 176,5.582970142,-0.240332007
S5552,Roundabout (Accra Mall),5.621079922,-0.173990995
S5246,Dome Market,5.644398212,-0.237585992
S1295,Kaneshie Bishop,5.571650028,-0.238609001
S960,Zongo Junction 410,5.556540012,-0.235567003
S5966,Number 3,5.607220173,-0.258569002
S3040,Lapaz,5.606500149,-0.249090254
S1998,Masalachi 240,5.583740234,-0.251635998
S709,Tantra Junction,5.643110275,-0.245645508
S1659,Awoshie Last Stop,5.591565132,-0.287209511
S5077,Junction 092,5.667429924,-0.238866001
S4834,Station 544,5.534369946,-0.237800002
S6144,Washing Bay 1,5.641459942,-0.250777006
S1757,Filling Station 231,5.562449932,-0.316141009
S3346,T-Junction 363,5.566100121,-0.252003998
S1629,Ablekuma Pharmacy,5.636680126,-0.319734007
S554,Agbajina,5.588200092,-0.207484007
S4841,Police Station 523,5.56137991,-0.153145999
S3974,Police Hospital,5.567945004,-0.180751503
S4102,First Junction 424,5.588739872,-0.097328
S3972,Papaye 2,5.559559822,-0.180728003
S4090,Overhead 423,5.567629814,-0.216526002
S4010,T-Junction 419,5.562890053,-0.143517002
S1014,Mortuary 155,5.541210175,-0.225257993
S1580,Firestone,5.670645237,-0.175824493
T1601,Terminal Maamobi-Nima Terminal,5.593272209,-0.194974002
S297,Super Market 081,5.667459965,-0.195923001
T558,Terminal Mallam Attah Station,5.579493523,-0.209795003
T2684,Terminal Agyapaye Station,5.596529961,-0.236970007
S3976,Aquinas,5.573750019,-0.179550007
S6021,Frankies,5.560279846,-0.182127997
S1581,Atomic First,5.6681633,-0.177076668
T4715,Terminal Zamrara Line,5.549542427,-0.257399668
T638,Terminal Kotoku Terminal,5.740097523,-0.356899254
S870,Anti Eku Junction,5.608170033,-0.274668008
S5152,Stop E,5.59389019,-0.194791004
S1963,Liberty,5.56953001,-0.270938993
S5694,Poultry farm,5.67509985,-0.203429997
S327,Bawaleshie Traffic Light,5.640810013,-0.169606
S4092,Curve 423,5.568180084,-0.216870993
S438,Roundabout 095,5.622389793,-0.242477
S4023,Koko Junction,5.616049767,-0.124766998
S4884,Banana Inn,5.542160034,-0.255506992
S406,Village,5.637760162,-0.217612997
S750,GSL,5.616869926,-0.201020002
S2458,Koomkporteye,5.53565979,-0.248585001
S1754,Mallam Market,5.573624134,-0.279290289
S3108,Mental Hosp.,5.562590122,-0.204696998
S5821,Abordwe,5.656479836,-0.281940013
S352,Amasaman,5.705945969,-0.298552394
S6041,Jedu,5.611800194,-0.267993003
S4036,Ridge Hospital 420,5.559929848,-0.205749005
S4410,Afridom,5.565080166,-0.182007998
S4900,Bridge 1,5.539973259,-0.251507014
S1964,Martin Deporres,5.561234951,-0.265138507
S6053,Rasta,5.611229897,-0.266021997
S528,Pure Fire,5.637989998,-0.211537004
S4374,Graceland,5.579589844,-0.234307006
S941,Filling Station 535,5.54764986,-0.217774004
T4549,Terminal Osu Penta,5.564859867,-0.181298502
S3990,First Stop 416,5.550089836,-0.188654006
S3366,Nkwadum Junction,5.571065903,-0.230490997
S3455,Cathederal,5.561369896,-0.206073001
S3547,New Road,5.666110039,-0.164931998
S4465,37 Hospital,5.591080189,-0.181058004
S2457,IBE,5.535649776,-0.247446001
T1328,Terminal Abelemkpe Station,5.607460022,-0.217957
S2208,Vulganizer 254,5.612390041,-0.201318994
T4255,Terminal Christian,5.636479855,-0.150743499
S4230,Workers College,5.556260109,-0.208226994
S514,Guest 351,5.643780231,-0.185776994
S1465,Trust Towers,5.563710213,-0.206164002
S5460,Because,5.598784924,-0.234726995
S2354,New Overhead,5.619619846,-0.230455995
S5906,Before bridge,5.669700146,-0.052832
S4134,First Junction 425,5.588580132,-0.097717002
S4300,Simpe 1,5.538099766,-0.239488006
S2635,Kings Hotel,5.561230183,-0.245720997
S3651,GRA,5.570919991,-0.210216001
S3215,Number 3,5.607184887,-0.258677006
S930,Camara 144,5.535630226,-0.247553006
S2109,Capital O2,5.559619904,-0.265231013
S1238,Cocoa Clinic,5.571673393,-0.235789001
S4397,St John's 452,5.582439899,-0.235191002
S31,Because,5.599150181,-0.236030996
S5673,Park 035,5.608940125,-0.318085015
S1293,Accra Academy 1,5.574639797,-0.243516997
S1787,School Junction 232,5.561840057,-0.207991004
S2836,Odorkor,5.580689907,-0.262277007
S1885,Water Works 237,5.565720081,-0.268965989
S4263,Dansoman Last Stop,5.529250145,-0.264050007
S962,Happy Days 410,5.555729866,-0.232448995
S5581,Commercial,5.576189995,-0.223057002
S2222,37 Hospital,5.591430187,-0.180978507
S444,Bridge 095,5.627289772,-0.252223015
S1210,Olabam,5.575610161,-0.238352671
S3978,IGP,5.579120159,-0.171452001
S1591,Flag Staff House,5.57626009,-0.188173994
T1059,Terminal Apapa Station,5.567415237,-0.163811997
S992,Old Station 149,5.535630226,-0.251421005
S60,Fadama Junction,5.601630211,-0.240546003
S2191,Fidelity Bank,5.610949993,-0.204047009
S3637,Traffic Light 004,5.687310219,-0.029646
S5049,Darkuman Accra Station,5.589049816,-0.251215994
S1179,Abolo Junction,5.53998518,-0.251638502
S5220,Junction 122,5.607850075,-0.274634004
S3331,Market 311,5.594709873,-0.207596004
S144,Scorpion,5.616095066,-0.260890514
S3166,Cold Store 058,5.607375145,-0.256963998
S899,Arena,5.54506731,-0.216699496
S3891,Roadside 410,5.551710129,-0.247601002
S1918,Market 238,5.539800167,-0.264656991
S316,Curve 082,5.651750088,-0.129538998
S613,Mayera Junction,5.695960045,-0.286552012
S5870,Free Pipe,5.599905014,-0.237631008
S5219,Deseret,5.608200073,-0.278537989
S3688,Abelemkpe,5.611229897,-0.217691004
S4701,Sikkens,5.552509785,-0.222917005
S3708,Sunshine 400,5.594820023,-0.216783002
S3222,Theatre junction,5.608329773,-0.263253987
S5726,Barnyard 1,5.587550163,-0.27157101
S1989,Akukor Photo,5.564060211,-0.260078013
S4173,Awoshie Last Stop,5.592000008,-0.287434012
T5593,Terminal Abeka Station,5.600790024,-0.239175007
S4043,Accra Poly,5.554029942,-0.204962999
T745,Terminal Tema Main Station,5.645395756,0.001625286
S691,Roadside 114,5.631259918,-0.237653002
S965,Sikkens,5.552593231,-0.223025665
S4292,Bishop Bowers,5.548260212,-0.231169
S881,Abrantie,5.605430126,-0.251965493
S4310,Point 6,5.528419971,-0.268570006
S6140,Abofu Junc.,5.619840145,-0.225933
S2707,Awudome Roundabout,5.572090149,-0.231087998
S641,Kotoshi Number Two,5.748069763,-0.345106989
S2516,Shell 274,5.579289913,-0.199974999
S602,Mayera Market,5.726699829,-0.276486993
S2911,Tobinco,5.593629837,-0.206633002
S1807,Thirteenth,5.56760025,-0.270258486
S5022,Mallam Market 1,5.573870182,-0.277170002
S4189,Weija Barrier,5.550845146,-0.330624998
S5210,King Kong,5.601240158,-0.261103988
S2540,Legon Mall,5.653969765,-0.180800498
S5678,Block Factory 035,5.623239994,-0.305954993
S4589,First Stop,5.530020237,-0.224221006
S3263,Israel Masalachi,5.630959988,-0.267720014
S4731,Zongo Junction 490,5.556099892,-0.242669001
S2154,2nd Junction,5.578100204,-0.234328002
S5801,Container 003,5.575699806,-0.138539001
T702,Terminal Taifa Station,5.658037663,-0.252960503
S5683,Presby Junction 035,5.609429836,-0.250755012
T534,Terminal Madina Station,5.676415443,-0.172070531
S440,Curve 095,5.625110149,-0.242989004
S2627,Komanko,5.555940151,-0.25337401
S739,Roundabout 117,5.62349987,-0.174409002
S4361,Ayalolo,5.5322299,-0.248282999
S985,St. Mary's,5.535429955,-0.223354995
S4644,Masalachi 480,5.527780056,-0.254772007
S5014,Amanfro,5.535669804,-0.410818994
T2688,Terminal New Fadama,5.599358082,-0.248018
S1103,Sabolai,5.555439949,-0.226168007
S5088,Blue Kiosk 990,5.565279961,-0.262910008
S1598,Nima Gutter,5.58837986,-0.196559995
S4947,Station 538,5.546979904,-0.255261987
S6077,Mallam Atta,5.584050179,-0.208203003
S3314,Vulganizer 356,5.612709999,-0.222353995
S2509,Masalachi First,5.581200123,-0.198853999
S991,Akoshie,5.535607815,-0.246313602
S3001,Overhead 1,5.612549782,-0.226797998
S3676,Aduase,5.684390068,-0.036288001
S2483,Toilet Junction,5.53042984,-0.242681995
S5965,Number 2,5.605855465,-0.260149002
S2730,Abodwe 3,5.535029888,-0.242382005
S4825,Banku Junction,5.555679798,-0.247187003
S872,Drug Store,5.603300095,-0.275056005
S6015,SSNIT 454,5.563199997,-0.182286993
S1225,Faith,5.57986021,-0.247029006
S3885,Happy Days 410,5.555650234,-0.232384995
S3316,Abofu,5.615190029,-0.225350007
S6089,Barcelos,5.609680176,-0.211943999
S4052,Circle Overhead 419,5.570340157,-0.213442504
S2356,Akweteman,5.6105299,-0.233933002
T5343,Terminal D.K. Last stop,5.695660114,-0.248373002
S1737,Heaven Church,5.627930164,-0.285872996
T2478,Terminal Chorkor Station,5.526199818,-0.250542015
S4516,New Russia Presby,5.558529854,-0.256476998
S5587,Fadama Junction 028,5.590939999,-0.230508
S4915,Korle Bu,5.535270214,-0.230849996
S1003,Agbado,5.538526535,-0.21575734
S1924,Wesley Grammar,5.566850185,-0.258168995
S658,ACP,5.68572998,-0.279724002
S952,Junction,5.555339813,-0.254620999
S2185,Darkuman Last Stop 090,5.577340126,-0.254583001
S408,Duanase 093,5.630080223,-0.219745994
S5449,Sarpeima Last Stop,5.725709915,-0.311430991
S5991,Jama Pokuase,5.692120075,-0.284168988
S228,Champion,5.56137991,-0.210519999
S2508,Nima Roundabout 274,5.578169823,-0.200565994
S2628,Junction,5.555389881,-0.25473699
T4204,Terminal Official Town,5.595479965,-0.259362504
S1898,Abrantie,5.588600159,-0.282312989
S5921,Bluecross,5.577519894,-0.306308001
T685,Terminal Achimota Old Station,5.616899967,-0.229515001
S4965,Jungle,5.547100067,-0.236366004
S4037,Boutapiode,5.574910164,-0.211735994
S467,Alajo Taxi Rank,5.595970154,-0.216901004
S1197,Curve 174,5.585979939,-0.236899003
S301,Barclays Bank,5.664889812,-0.204600006
S1145,Bukom,5.5385499,-0.211670995
T1246,Terminal Bubiashie Atico,5.57972002,-0.246829994
T448,Terminal Israel Station,5.631155968,-0.268824601
S1788,Adabraka Market,5.560669899,-0.211834997
S3218,Theatre junction,5.61014986,-0.265069991
S4577,Fire Service 521,5.532034874,-0.217135012
S1071,Ministries,5.54873991,-0.194817007
S4,Ablekuma Last Stop,5.62748003,-0.312570006
S1013,Ayigbe,5.552350044,-0.230565995
T132,Terminal Orgle Road Station,5.584671021,-0.235117199
S2231,Opeibea First,5.596280098,-0.179382995
S1662,Odorkor 1,5.579390049,-0.266474009
S3927,Konca,5.596620083,-0.194984004
S4993,Chemuena Station,5.526390076,-0.248989001
S5943,Point five,5.633969784,-0.326757997
S249,Curve 2,5.622489929,-0.225911006
T2880,Terminal 37 Station,5.588881493,-0.179769852
S2971,Hong Kong 314,5.598730087,-0.263190001
S6251,JT 305,5.564730167,-0.245459005
S3146,Flower Pot 380,5.658679962,-0.206927001
S3153,Cosway Junction,5.68688488,-0.194684997
S3372,St Theresa's,5.57945013,-0.228420004
S3039,Overhead 321,5.61232996,-0.228304997
S780,Survey Dept.,5.58754015,-0.174631998
S5318,Alajo,5.590819836,-0.218245
S1457,Barclays Club House,5.566609859,-0.189814001
S302,Pharmacy 380,5.661176682,-0.205756992
T1048,Terminal Alajo Junction,5.590865135,-0.217518501
S3074,Video 325,5.60030508,-0.27324599
S3895,Bridge 410,5.550250053,-0.251289994
T1450,Terminal Osu RE,5.558982372,-0.182449251
S12,Timber Market 005,5.697450161,-0.315010011
S523,Achimota Hospital,5.627110004,-0.218937248
S891,Lamptey Maamli,5.526599884,-0.246205002
T4872,Terminal Banana Inn Taxi Station,5.543839931,-0.259144992
T195,Terminal Accra New Town Station,5.5834198,-0.208531506
S4478,School Junction 002,5.554950237,-0.183342993
S237,Mental Hosp.,5.562560081,-0.204417497
S5478,Junction 216,5.598350048,-0.231788993
S1236,Bongo Bar,5.573579788,-0.228887007
S5346,Kwabenya station,5.690539837,-0.247839004
S4840,Maamli,5.560120106,-0.155392006
S3465,Washing Bay 383,5.643750191,-0.059921
S516,Roundabout 099,5.639979839,-0.183817998
S4643,Two-O-Five 1,5.530330181,-0.253793001
S4601,Salvation,5.545760155,-0.240266994
S701,Light House Junction,5.656219959,-0.252321988
S6263,Exhibition,5.544000149,-0.265632004
S4333,Agege,5.53192997,-0.254101992
S1285,Cemetery Junction,5.568659782,-0.227571994
S5083,Peace Clinic,5.566160202,-0.247727007
S3635,Road Side 394,5.629230022,-0.066689
S353,Market 084,5.689730167,-0.285064012
S300,Haatso Junction,5.667669773,-0.205201671
S732,CP 117,5.61569643,-0.212086335
S3000,Sue's Inn,5.610169888,-0.234295994
S2599,Abordwe,5.535019875,-0.242366999
T1742,Terminal Omanjor Station,5.63804245,-0.296080001
T398,Terminal Dome Pillar 2 Station,5.654095173,-0.2281515
S2083,Ussher Fort,5.538650036,-0.208361998
S4187,Tetegu,5.55493021,-0.306813985
S5424,Pink FM,5.535369873,-0.417502999
S165,Bridge 256,5.645780087,-0.144603506
S3003,Shell 318,5.619959831,-0.185724005
S2289,Agege Last Stop Station,5.528967857,-0.264424592
S2841,Addy Junction,5.585919857,-0.264892012
S3730,Container 401,5.613299847,-0.245043993
S2769,Asantewa,5.579430103,-0.210569993
S385,Mile 7 Junc.,5.633998394,-0.239822343
S743,Community 4,5.658229828,-0.003627
S888,Galiami,5.527180195,-0.239113003
S5067,Junction 092,5.667079926,-0.239124998
S1701,School Junction 227,5.602910042,-0.293372005
S791,GIMPA Junction,5.639150143,-0.209795997
S1221,Datus 175,5.581779957,-0.242310002
S5615,Welfare,5.56814003,-0.234721005
S2438,Kasoa Station,5.556402683,-0.240131259
S5441,Toman,5.712230206,-0.30508101
S4756,Quarters 306,5.588560104,-0.251118004
S3823,Overhead 406,5.572949886,-0.283609986
S2998,Taxi Station,5.605939865,-0.249551997
T317,Terminal Station 082,5.657050133,-0.131606996
S543,Christian Village Junc.,5.634739876,-0.215242997
S4661,Gemate,5.543220043,-0.241525993
S1873,Abam Kofi,5.561900139,-0.270678014
S3911,Odorna,5.564109802,-0.216169998
S2288,Atomic (by Agege),5.527267456,-0.266436249
S5211,Junction 122,5.608009815,-0.274834991
S5202,Bokuase Junction,5.687320232,-0.281742007
S1250,Old Melcom 1,5.587880135,-0.226257995
S6197,Kotoku Market,5.735249996,-0.361440986
S3897,Junction 410,5.550010204,-0.253863007
S1487,Total 209,5.576499939,-0.227972999
S47,Kaneshie Polyclinic,5.574230194,-0.230746999
S1971,Seven Great 242,5.535976887,-0.265111327
S4039,College,5.583390236,-0.206806004
S6099,Cold Store 006,5.634860039,-0.100207999
S1571,Okponglo 221,5.637869835,-0.177463993
S102,Amanfro,5.535723209,-0.412741005
T201,Terminal Accra Newtown,5.581530094,-0.209030002
S1135,Quarters 2,5.571280003,-0.245596007
S5468,Accra UTC,5.55065012,-0.210837007
S181,Camara 070,5.630084991,-0.173446998
S1723,Academy,5.570690155,-0.245412007
T5622,Terminal 37 Lorry Park,5.588822365,-0.179426998
S3035,City Light,5.632209778,-0.150056005
S187,Acheampong,5.642809868,-0.160189003
T1626,Terminal Ablekuma,5.6353302,-0.32166101
S3552,Trinity 387,5.652770042,-0.169210002
S231,Alajo,5.588722706,-0.218138993
S3821,Water Works 406,5.57986021,-0.277877003
S2843,Abossey Okai,5.55783987,-0.231371999
S2140,Bubiashie,5.578320026,-0.238768995
S1869,Capital O2,5.559720039,-0.265012503
S853,Abeka Lapaz Station,5.607693195,-0.246311828
S6247,New Fadama,5.59965992,-0.237132996
S5803,Kpogas,5.573200226,-0.150040999
S335,Abofu,5.613976479,-0.222999334
S142,Mambo 263,5.601029873,-0.25563401
S2963,Second Lake,5.5978899,-0.276659012
S283,Zongo Junction 081,5.676650047,-0.179198995
S4232,Fataw,5.558110237,-0.223795995
S5957,Ablekuma Junction,5.626729965,-0.308943987
S2636,First Light 3,5.568319798,-0.242789
S5926,Vulganizer 050,5.577270031,-0.301766992
S3473,Theater,5.553830147,-0.200019002
S2239,Banku Junction (E. Legon),5.64000988,-0.169431001
S2683,Adoodo Down,5.589779854,-0.236944005
S4116,Overhead 424,5.566629887,-0.212561995
S4531,Lotteries,5.546380043,-0.202178001
S4729,Gaskia,5.556119919,-0.235562995
S1564,37 Hospital,5.587729931,-0.182788998
S1859,Market 1,5.54129982,-0.26462701
S2956,New Town 37 Station,5.587830067,-0.207515001
S5416,Weija Junction,5.555840015,-0.303923994
S26,Bank(GCB),5.58488512,-0.208196506
S2283,Shop,5.674479961,-0.126770005
T4847,Terminal Trade Fair,5.569105148,-0.1480745
S5695,Fitting Shop 120,5.691030025,-0.197644994
S5357,High Tension,5.616044998,-0.248395741
S3217,Container 058,5.60899353,-0.263940006
S1198,Holy Trinity Junction,5.588260174,-0.234448999
S1166,Bishop,5.543970108,-0.204497501
S3243,Roadside 345,5.598020077,-0.217084005
S2291,Karikari,5.531115055,-0.2611835
S3917,Airport Residential,5.609149933,-0.184029996
S1606,Alaska,5.586348057,-0.197145998
S1926,Academy,5.570700169,-0.245242
S5109,Ribero,5.555669785,-0.247039005
S6112,CP 006,5.6427598,-0.110182002
S4024,Ataa Odoi,5.615170002,-0.124582
S587,Pamprom 104,5.710130215,-0.286415011
T883,Terminal Agbogbloshie Station,5.549630165,-0.217147453
S5769,Addae house,5.609370232,-0.238279998
S2484,Toilet Junction,5.53290987,-0.242496997
S4635,St Mary's/Barber,5.536857128,-0.223364994
S2666,UTC (Agbado),5.53821516,-0.217457503
S2165,Atico,5.57417345,-0.25036633
S1621,Pentecost Junction,5.626379967,-0.307709008
S3060,Auntie Aku Junction,5.611770153,-0.279720992
S3279,Junction 351,5.640160084,-0.219975993
S2311,Agege Last Stop Station,5.529223442,-0.264124006
S304,Westland Junction,5.64982605,-0.209960997
S1057,Roadside 159,5.591720104,-0.216901004
S4148,Labadi,5.562129974,-0.145164996
S5392,Mallam Junction 017,5.569210052,-0.286870003
S1212,Filling Station 174,5.577410221,-0.238616005
T1216,Terminal Bubiashie Station,5.580392361,-0.239548001
S3705,Drugstore,5.597499847,-0.211110994
S2885,Abavana,5.594679832,-0.202276498
S376,First Power,5.658030033,-0.276553988
S91,Tetegu Junction,5.554104805,-0.309057504
S726,Site 20,5.647384167,0.0023618
T977,Terminal Tema Newtown Terminal,5.651340008,0.024435
S4208,Rock,5.585589886,-0.262760013
S5249,St John's Dome Station,5.639353275,-0.242561996
S6057,Curve 058,5.629829884,-0.285973012
S5892,Mortuary 048,5.544310093,-0.227697998
S1449,Fire Service 206,5.569039822,-0.184942499
S2748,Curve 1 296,5.559400082,-0.25189501
S3348,Cold Store 363,5.564750195,-0.255367011
S855,Blue Kiosk,5.608089924,-0.245778993
S2038,Junction 242,5.578440189,-0.267244995
S1067,Afridom,5.564459801,-0.181384996
S4378,Mangoase 1,5.580239773,-0.2347195
S3004,Roundabout 318,5.622169971,-0.174665004
S5112,Taxi Rank 995,5.552780151,-0.249791995
T1467,Terminal Circle Coporative Station,5.56891489,-0.214871749
S1094,Pamprom 155,5.5634799,-0.232914999
S1900,Mallam Market,5.572440147,-0.28066501
S2429,Second Junction 267,5.545219898,-0.250216991
S6165,Total,5.682559967,-0.014002
S4302,Banboi 2,5.532670021,-0.246243998
S956,Curve 146,5.556580067,-0.251022995
S5925,Cemetary 050,5.577340126,-0.307770014
S3373,Obaatampa,5.581289768,-0.229940996
S3290,Vulganizer 351,5.644040108,-0.224544004
T225,Terminal Accra UTC,5.55071497,-0.208612751
S4409,Danquah 055,5.567015171,-0.182548493
T2301,Terminal Accra Bishop,5.5432477,-0.2046565
S6036,Appiah,5.612649918,-0.268950999
S5805,Palm Wine,5.576230049,-0.152106002
S3478,Roundabout 384,5.679279804,-0.022428
T3443,Terminal Pig Farm Station,5.598026752,-0.198444004
S4098,Bush Road Junc.,5.566329956,-0.131920993
T3256,Terminal Tetteh Quarshie,5.620504856,-0.173395
S1531,Fadama Junction,5.601640224,-0.240660995
S1804,Hong Kong 017,5.60296011,-0.258415997
S5521,Top class,5.596439838,-0.199518993
S3451,Circle Overhead 996,5.571519852,-0.213225007
S5880,Washing Bay 046,5.580999851,-0.229721993
S3793,Eco Bank 404,5.6354599,-0.215138003
S5800,Curve 003,5.584259987,-0.142692
S437,Kingsby Hotel,5.623720169,-0.240715995
S1396,Mallam Atta,5.584090233,-0.20826
S3748,Lapaz,5.606669903,-0.249549001
S1386,Road Side 196,5.579969883,-0.210308999
S4958,Total,5.557919979,-0.231257007
S4960,VIP Station,5.568500042,-0.219616994
S436,Mile 7 Junc.,5.634829998,-0.240073994
S6138,Abelemkpe Aduanase,5.611259937,-0.217831001
S4209,Driving School,5.583759785,-0.264521003
S2879,First Gate 307,5.590270042,-0.182944
S2792,Eno,5.602049828,-0.239937007
S1600,Maamobi Market,5.593910217,-0.1948805
S1069,Papaye 002,5.559612274,-0.182148248
S1778,Curve 177,5.5521698,-0.214894995
T2643,Terminal Shalom Station,5.5292449,-0.2318215
S1280,Brewery,5.553510189,-0.214583993
S3408,Accra Bishop Station,5.544020176,-0.204483002
S5492,Filling Station 021,5.654190063,-0.237296999
S740,1st Under Bridge,5.674449921,-0.043933
S42,Cold Store 366,5.58754015,-0.232944995
S161,Selina,5.645269871,-0.156197995
S1088,Market 488,5.550109863,-0.220339999
S2849,Atico,5.573219776,-0.248680994
S5419,Dam,5.551690102,-0.367947996
S566,Roman Ridge,5.602900028,-0.200339198
S2474,Kakalika,5.530780315,-0.242441505
S3407,One Way 2,5.537475109,-0.210320994
S2016,Block Factory 241,5.628479958,-0.173674002
S6115,Papaye 006,5.632380009,-0.139478996
S2059,Umbrella,5.573560238,-0.273270011
S937,Korle Bu,5.536193848,-0.226506457
S323,Curve 2 082,5.647510052,-0.149948001
S3326,Curve 356,5.59204483,-0.205446005
S3089,Transformer 326,5.622310162,-0.278275996
S2345,Junction 1,5.644869804,-0.210509002
S4150,Mobil 428,5.583610058,-0.104988001
S3512,Legon Gate,5.651755333,-0.180142507
T1896,Terminal Anyah Station,5.599096775,-0.290684332
T2496,Terminal Korle bu Station,5.533959866,-0.236200005
S5905,Sign board,5.668109894,-0.056992002
S5172,Race Course,5.614019871,-0.273790002
S4004,Nima Station,5.579959869,-0.197890997
S5283,Alajo,5.588065147,-0.218009502
S4694,Liberia,5.554530144,-0.247409999
S2454,Down Rice,5.539110184,-0.243926004
T4623,Terminal Shiabu,5.525229931,-0.256774008
S397,Oman,5.655580044,-0.222942993
T4006,Terminal Odorna Station,5.567151546,-0.217135333
S410,Achimota School,5.622729778,-0.219210997
S2435,Curve 2 405,5.542980194,-0.248923004
T6170,Terminal Tema Main Habour Round About,5.639160156,0.003866
S5752,Roadside 380,5.651480198,-0.209451005
S2608,Kaneshie Dansoman Station,5.563399792,-0.237487003
T1499,Terminal Teachers Hall,5.557775021,-0.208026499
S2467,M Polyclinic,5.538849831,-0.244556993
S4268,Makola No. 2,5.548319817,-0.218294993
S4177,Onyinase,5.590240002,-0.284682989
S999,Rainbow,5.533996582,-0.240411669
S3085,School Junction 326,5.612289906,-0.275343001
S179,Super Market 071,5.638724804,-0.1707865
S3968,Second Stop 416,5.550419807,-0.185207993
S972,Ghacem Bus Stop 2,5.639359951,0.007648
S5259,Free Pipe,5.598609924,-0.234124005
S2266,Sankara 1,5.570829868,-0.191023007
T5938,Terminal Lapaz Station-Mahean Afuaman,5.627319813,-0.314639986
S3347,Junction 363,5.565639973,-0.253852993
S4856,G.C.B,5.55298996,-0.176464006
S5192,Weija Barrier,5.654389858,-0.260361999
S4038,Timber Market 420,5.582240105,-0.206977993
S2134,Mosque 036,5.559510231,-0.230472997
S4764,Attor Quashie,5.541359901,-0.212192997
S651,Pobima,5.735449791,-0.31419301
S2278,Gate 256,5.645740032,-0.137773007
T2022,Terminal Bawalashie,5.641983509,-0.166246668
S6167,Site Four,5.658030033,-0.003585
S4988,Toilet Junction,5.533309937,-0.242760003
S847,NIB,5.610350132,-0.235436007
S4411,SSNIT 454,5.563240051,-0.182249993
S3907,Market 488,5.552959919,-0.223557994
S5978,Anusem,5.713210106,-0.284456015
S2234,Airport Second,5.609630108,-0.176622003
S2488,Blacksmith,5.550948143,-0.240095496
S5349,Vulganizer 015,5.652390003,-0.237461999
S1292,Pentecost 178,5.575789928,-0.244184002
S6001,Mile 7 021,5.632657051,-0.243499994
S332,Shiashie,5.628456116,-0.1767416
S591,New Life 104,5.719409943,-0.280557007
S4221,Mortuary Korle Bu,5.542960167,-0.226528004
S1276,Flats Junction,5.57365036,-0.231588006
S3499,Total 385,5.600039959,-0.195516005
S4710,Curve 1 995,5.555399895,-0.244372994
T7,Terminal Ashalaja,5.663660049,-0.3666085
S4207,Blue Kiosk 436,5.592450142,-0.259306014
S4447,Pre Sec,5.662789822,-0.177888006
S3271,Legon Campus,5.643740177,-0.186225995
S5770,Roadside 2 380,5.608459949,-0.243727997
S6231,Hi Tension,5.616030216,-0.248431996
S897,Roundabout 139,5.535480022,-0.213312
S1979,Market 1,5.541309834,-0.264804661
S2181,Mallam Station; MMT,5.56704998,-0.238622993
S1123,Zongo Junction 166,5.557765961,-0.239797801
S636,Bridge 105,5.752009869,-0.33929199
S2646,Curve 3,5.531219959,-0.232281998
S5840,Road Side 044,5.617529869,-0.249559
S2094,Bamboi 2,5.532865047,-0.246242255
S6024,Police Head Quarters,5.571219921,-0.188491002
S5714,Curve 1,5.641799927,-0.211016998
S135,Nima Main Market,5.581110001,-0.197356001
S447,Masalashi,5.630949974,-0.267035007
S5753,Phamarcy 380,5.65982008,-0.206380993
T37,Terminal Abeka Main Markt,5.607719898,-0.245403007
S1858,Exhibition Roundabout,5.53742981,-0.264710993
T679,Terminal Ashaiman Station,5.686895847,-0.032383917
S2580,UNC,5.5322299,-0.248247996
S2296,Bamboi 2,5.532855034,-0.246271998
T155,Terminal Accra End of Motorway,5.628027439,-0.176425502
T1161,Terminal Banana Inn Laststop,5.53414011,-0.240858003
S3825,Abease,5.574319839,-0.287411988
S1987,Mama's Inn,5.55444479,-0.264495522
S11,Three Junction,5.69630003,-0.317256987
S122,Bubushie,5.586239815,-0.239797994
S5279,Eno,5.60281992,-0.241831005
T103,Terminal Kasoa Station,5.534622192,-0.423644153
S3142,Christian Village Junc.,5.635610104,-0.215062007
T5922,Terminal Gbawe Station,5.576654911,-0.3095745
S1568,Airport First,5.606385231,-0.177399501
S4911,Timber Market 536,5.54321003,-0.216042995
S2578,Atomic (by Agege),5.52752018,-0.266171396
S5600,Industrial Area SSB,5.578559875,-0.223390996
S6032,Number 2,5.605999947,-0.259956986
S1297,Mkt Roundabout 178,5.566405296,-0.233891502
S5574,Adabraka Market,5.563089848,-0.213936999
T349,Terminal Kuntunse - Satelite,5.746930122,-0.318673998
S303,Clinic 121,5.657040119,-0.207723007
S1922,Maa Mercy,5.552750111,-0.264494985
S4314,Junction 446,5.529009819,-0.271622002
S1761,Zongo,5.571060181,-0.33356601
S261,Tudu 1st,5.553279877,-0.208511993
S4086,Market 403,5.580160141,-0.197793007
S3453,Road Side 376,5.566860199,-0.208177999
S2426,Curve 2 405,5.543039799,-0.248923004
S482,Nii Boiman,5.608022213,-0.245940745
S2897,Market 311,5.59469986,-0.207691669
S205,Market 156,5.563024998,-0.213889331
S1530,Abeka Market,5.600599766,-0.238943607
S345,Shikpontele,5.717944622,-0.30834949
S2125,Beecham,5.551959991,-0.264609009
S415,Pokuase Junction,5.687734604,-0.281729102
S3341,Pharmacy 363,5.56861496,-0.251482487
S1604,Nima Gutter,5.588500023,-0.196555004
S443,T-Junction 16,5.626580238,-0.250584006
S1960,Mallam Junction 239,5.570970058,-0.285483003
S3124,Masalich,5.675769806,-0.173618004
S5102,Korle Bu Junction 185,5.529850006,-0.225073993
S4383,Sakora Junction 452,5.578810215,-0.234543994
T1009,Terminal Kanashie Mkt Cmplx,5.565136433,-0.234975333
S6153,Second Stop 007,5.657800198,-0.265531003
S5877,Cold store 366,5.587739944,-0.232769996
S4202,Mercy,5.59112978,-0.259685993
S2224,GBC,5.573560238,-0.192916006
T5754,Terminal 5 Haatso station,5.667039871,-0.204694003
S3636,Total 394,5.643249989,-0.060183998
S393,Parakou,5.641740322,-0.221783996
S5310,Rawlings park,5.545000076,-0.209492996
S5953,Pentecost 051,5.637849808,-0.352263987
S1005,Timber Market 536,5.54324007,-0.216217995
S4320,Goil 446,5.551515102,-0.240264997
S2184,Dansoman Junction 251,5.574880123,-0.251511008
S4018,Ataa Odoi,5.612979889,-0.124026
S99,Galelia,5.539198399,-0.398674995
S925,Agbado,5.538559914,-0.215520337
S2147,Azar,5.558539867,-0.222645
S3474,Traffic 383,5.551519871,-0.198899001
S3668,Mamobi Market,5.593770027,-0.194719002
S2199,Masalachi 254,5.589509964,-0.207452506
S971,Ghacem Bus Stop 1,5.637340069,0.005646
S3464,Sakumono Estate Junction,5.622809887,-0.069573998
S2773,Nima Junction,5.582250118,-0.208612993
S1678,Oduman Junc.,5.640580177,-0.334630013
S1000,Plaza 149,5.534170151,-0.235723332
S1759,New Town 231,5.568500042,-0.328007996
S5535,Trade Fair,5.565100193,-0.144600004
S826,Achimota Hospital,5.627570152,-0.219207004
S391,Curve 1 093,5.636640072,-0.217846006
S1973,Kofi Ne Ama,5.53316021,-0.265332997
S3567,SCC,5.548140049,-0.337381989
S807,Gose Junction,5.686659813,-0.195516005
S2473,School,5.533209801,-0.242743
S3425,Malata,5.5834198,-0.208067998
T728,Terminal Tema C'mty One,5.64497757,0.00184925
S1204,New Melcom,5.585120201,-0.221458003
S5018,Broadcasting,5.552249908,-0.358020991
S4870,Bridge 1,5.53982687,-0.251367331
S861,Auntie Eku,5.608150005,-0.274655014
S4035,Tigo 420,5.558239937,-0.205403998
S5078,Born Again,5.658239841,-0.237310499
T1874,Terminal Last Stop (SSNIT Market),5.564050198,-0.270419002
S2164,Goil 303,5.573090076,-0.248697996
S3628,Road Side 394,5.638259888,-0.105402
S733,Abofu,5.61424017,-0.222051993
S1243,Royal Cemetery,5.577469826,-0.238674507
S3674,Gas,5.624790192,-0.068728
S2142,Masalachi 240,5.582240105,-0.251498997
S3291,Village 351,5.637509823,-0.217458993
S1589,37 Hospital,5.587659836,-0.183010995
S1937,Beechem,5.552103519,-0.264604986
T2313,Terminal Glefe,5.521759987,-0.273747504
S2015,Shell 241,5.592820168,-0.180497006
S2390,Post Office 264,5.560110092,-0.260190994
S5844,Mile 7 021,5.632199764,-0.244195998
S3634,Taxi Rank 394,5.622019768,-0.069854997
S1539,Junction 176,5.598360062,-0.230589002
S2366,Darkuman Accra Station,5.588620186,-0.251134992
S2664,Mortuary 283,5.538599968,-0.222123995
S2028,Nima Police Station,5.573474884,-0.201041013
T1325,Terminal Circle Opps. Vodafone,5.572797775,-0.215844199
S2246,Ability,5.656509876,-0.131415993
S4671,BigTime Spot,5.545159817,-0.249017
S6151,No way,5.652019978,-0.250726998
S5860,Park 044,5.632219791,-0.244332999
S5642,Morning star school,5.57336998,-0.179660007
S2530,Weija Barrier,5.705420017,-0.171069995
T54,Terminal Agbogbloshie Station No. 2,5.551598549,-0.219884539
S2409,Abossey Okai Asoredanho,5.561492443,-0.238558248
T1763,Terminal Weija Station,5.572400093,-0.337379009
S6186,Mezdonia,5.730100155,-0.312451005
S5867,Blue Kiosk,5.593500137,-0.233315006
S705,Union Oil,5.652709961,-0.251791
S4026,La General Hospital,5.557290077,-0.164829001
S200,Bank (GCB),5.585034847,-0.208132997
S4315,Point 6,5.527880192,-0.267764986
S3202,Omanjor,5.636270046,-0.292479992
S3032,Manet,5.640820026,-0.129008502
S677,Junction 112,5.685200214,-0.027952
S3436,Junction 376,5.577169895,-0.210225001
S815,GIMPA Junction,5.638979912,-0.209342003
S6194,Kotoku Station,5.740119934,-0.356869996
S3339,Mars,5.56182003,-0.254913986
S2141,Vulganizer 247,5.582019806,-0.244617
S3486,Samara,5.646389961,-0.115277998
S2534,SDA,5.696589947,-0.171975002
S3028,License,5.653490067,-0.097658001
T1181,Terminal Bishop Station,5.543280125,-0.204909004
S117,Quarters 306,5.585967541,-0.251554012
S1648,Roxy,5.557909966,-0.212641001
S1164,Light House 485,5.533586502,-0.211741
S92,Barrier 1,5.551010132,-0.330222011
S2170,STC,5.565340042,-0.225602999
S5568,Lapaz Junction,5.598889828,-0.224001005
S929,Bamboi,5.531620026,-0.245891005
S2195,Mallata,5.58698988,-0.207629994
S4063,Ofankor Barrier,5.705560207,-0.171054006
S3387,Park 368,5.592810154,-0.203664005
S3360,Curve 366,5.599850178,-0.243963003
S465,Abeka Junction,5.598844051,-0.224233806
S1304,White House 178,5.576570034,-0.245598003
S293,Ritz,5.684229851,-0.171462998
S789,Filling Station 021,5.635519981,-0.214583993
S296,Atomic,5.667329788,-0.178220004
S781,37 Hospital,5.58852005,-0.185310006
S2082,Shell 282,5.533130169,-0.237482011
S2235,Shangrila,5.617280006,-0.175814003
S1111,Zongo Junction 410,5.557496548,-0.24052234
S2355,Achimota Old Station,5.61578989,-0.2295205
S2951,Asylum Down,5.567009926,-0.206652001
S4666,Second Junction,5.545229912,-0.249007002
S6064,Agbeve,5.625020027,-0.284155995
S2974,Akweteman,5.60863018,-0.240021005
S3689,Curve 399,5.622600079,-0.225912005
S5807,Congo Junction,5.58825016,-0.162985995
S1431,Prince of Peace,5.579810143,-0.233623996
S4384,Presby Junction 452,5.574110031,-0.236190006
S927,Shell Filling Station 463,5.53366518,-0.238041252
S690,ABC,5.629089832,-0.236270994
S3570,Iron City,5.536029816,-0.410802007
S2958,Taxi Rank 311,5.59180975,-0.205657497
S23,Caprice Taxi Rank,5.584640026,-0.215927005
S2752,Traffic Light 296,5.558790207,-0.246698007
S5590,Washing Bay 2,5.594150066,-0.232915998
S3171,Star,5.622304916,-0.261728495
S166,First Block Factory,5.645720005,-0.139154002
S4792,Afiina,5.537290096,-0.212635994
S4192,Kalabule Junction,5.543409824,-0.389919996
S357,Junction 085,5.61480999,-0.234354004
S5912,Dzowulu Junction Station,5.618259907,-0.19179149
S5065,Born Again,5.658060074,-0.237397
T211,Terminal Dansoman Laststop,5.530091286,-0.265222819
S630,Amasaman,5.704615116,-0.297497749
T798,Terminal Ashongman,5.703605175,-0.2104575
S1520,Love Ridge,5.567830086,-0.200255007
S2253,Gbewaa Junction,5.642580032,-0.160980999
S1187,Police Hospital 002,5.567949772,-0.180796996
S1251,Circle Melcom,5.580239773,-0.220578
S1572,Legon First,5.649230003,-0.179635003
T2616,Terminal New Town Station,5.58536005,-0.207974233
S5205,T-Junction,5.623710155,-0.248973995
S5802,Stop C,5.572710037,-0.149322003
S1408,Roadside 2 201,5.578800201,-0.211042002
S3777,Roundabout 403,5.556369781,-0.217442006
T5215,Terminal Aunti Eku Pallas Town,5.612199783,-0.284537494
S4953,Mango Down,5.542630196,-0.256399989
T2116,Terminal Mallam Junction,5.571020126,-0.285654008
S829,Filling Station 021,5.635499954,-0.21458149
S2323,Junction 262,5.525740147,-0.270956993
S567,Ebony 254,5.605013847,-0.203650802
S207,MTTU(Last Stop),5.550059795,-0.209683001
S2991,Hong kong 017,5.601150036,-0.261168987
S4897,Down Wright 535,5.541140079,-0.243670002
S3973,Papaye 2,5.561450005,-0.180666
S3576,Galilea Market,5.535490036,-0.414826989
S2423,Christ Embassy,5.546760082,-0.244155005
S2517,Circle Overhead 419,5.570243359,-0.21353367
T89,Terminal Abossey Okai Camara Station,5.564694881,-0.236644
S2818,Abossey Okai,5.560540199,-0.229796007
S2495,Sempe,5.538710117,-0.238860011
S831,Westland Junction,5.650206566,-0.209768668
S1803,Lapaz Market,5.606629848,-0.249528006
S2758,Perfect Touch Dzorwulu,5.608650208,-0.206522003
S4871,Abolo Junction,5.541890144,-0.254842013
S3704,Station 400,5.59897995,-0.210813999
S2065,Vineyard,5.584579945,-0.275038004
S1258,Awudome Roundabout 1,5.572199821,-0.231089994
S5793,Water Melon,5.582799911,-0.141624004
S5757,Road Side 380,5.661469936,-0.205642998
S3745,Achimota Overhead,5.612820148,-0.226688996
S2300,Post Office 172,5.541460037,-0.209182993
S1390,Road Side 2 166,5.59469986,-0.207789004
S4545,Melcom,5.54431963,-0.20649451
S1993,Nyamekye 2,5.602616787,-0.258490682
T197,Terminal Caprice,5.584535122,-0.216853999
S2561,Kaneshie Roundabout,5.562479973,-0.228628993
S5904,Abattoir,5.662610054,-0.070570998
S466,Market 224,5.591272354,-0.216938749
T2404,Terminal Sukura Station,5.550503731,-0.250045249
S647,Block Factory 2 105,5.749139786,-0.319763988
S2388,Zodiac,5.558640003,-0.26117599
S2896,Jehovah's Witness,5.592289925,-0.207018003
S3788,Chop Bar 404,5.642300129,-0.238479003
S175,Acheampong,5.643043518,-0.159744337
T4154,Terminal Tsui Bleeo,5.605955124,-0.115867499
S1695,Agape,5.625255108,-0.306477487
S1105,Agbogbloshie Station No. 2,5.550819874,-0.221159995
S623,Achimota Overhead,5.620830059,-0.231471494
S5820,Second power,5.657790184,-0.278409004
S1732,Family and Friends,5.600645065,-0.273318499
S6017,Kelewele 055,5.554570198,-0.181795001
S797,Alowe,5.702060223,-0.209133998
S3296,Orponglo,5.641560078,-0.178148001
S4581,T-Garden 525,5.526989937,-0.241721004
S121,Quarters 306,5.586304665,-0.251435012
T4259,Terminal Opetekwei Station,5.527601242,-0.273740627
S2421,First Junction 267,5.55340004,-0.243857995
S1078,Labone School,5.564829826,-0.171056002
S1129,Goil 303,5.572850227,-0.248524994
T3542,Terminal Ashaley Botwe,5.677090168,-0.143215001
S5550,Kotobabi,5.628930092,-0.089915
S5843,T Junc. Down,5.628089905,-0.251253992
S5658,Akweteman,5.611549854,-0.231227994
S501,Guest,5.643760204,-0.186121002
S157,Puplampu,5.637770176,-0.171355993
S5713,Bridge 377,5.643499851,-0.210152999
S785,Police Station 118,5.62116003,-0.220822006
S4853,Maamli,5.559740067,-0.157738999
S4924,Five Five 539,5.546826839,-0.25410533
S3281,Wispon,5.648530006,-0.230340004
S3026,Ghacem 321,5.638609886,0.00689
S5994,Agya Herbal,5.672369957,-0.271993995
S1469,Cathederal,5.563610077,-0.206258997
S2652,Sempe,5.537144661,-0.238415495
S4689,Second Junction,5.545269966,-0.250312001
S110,Darkuman Junction 225,5.576345921,-0.254698992
S764,Coldstore,5.597280025,-0.085822999
S3043,Quarters 322,5.571839809,-0.247250006
S774,Lascala,5.578310013,-0.111556001
S1079,Coffee Shop,5.568980217,-0.168899
T1146,Terminal Accra Post Office,5.541462421,-0.209251447
T1098,Terminal Ordorkor,5.580430031,-0.263660014
S757,Palm Wine,5.575819969,-0.152083501
S4427,Mobil 055,5.573729992,-0.197688505
T1656,Terminal Fan Milk,5.628715038,-0.298109993
T5090,Terminal SSNIT Flat Station,5.564199924,-0.273288995
S3248,Community Nine,5.683119774,-0.014112
S3682,Gutter,5.588538647,-0.196539745
S5101,Nii Beach,5.529359818,-0.227455005
T5073,Terminal Ashognman Estate,5.702394962,-0.235508002
S5263,Abeka Junction,5.597330093,-0.223141
S3982,Prisons 002,5.573319912,-0.179702997
S2434,Church of Christ,5.54531002,-0.249070004
S278,Atomic Second,5.667944908,-0.176688746
S5760,Roadside 380,5.656260014,-0.208002999
S263,P&T,5.57227993,-0.216067001
S4051,Busy Internet,5.571125031,-0.210288003
S2622,JT 281,5.562679768,-0.245570004
T2244,Terminal Adjiringanor Station,5.677074909,-0.125028998
S5190,Unity Oil,5.649429798,-0.252312988
S4626,Drug Store 480,5.522260189,-0.261996508
T994,Terminal Camara Station,5.536543846,-0.255284004
T3023,Terminal Tema Habour,5.630620003,0.004512
S1479,Kingdom Books,5.55284977,-0.189110994
S193,Zenith Bank,5.634089947,-0.172443002
S2523,Okponglo 275,5.641545773,-0.178124577
S4674,Sempe,5.539979935,-0.239127994
S2315,Yellow House 262,5.524620056,-0.271656007
S2468,Salvation 2,5.541305065,-0.239363745
S4727,Happy Days 410,5.555659771,-0.232401997
S6083,Accra Poly,5.554059982,-0.204885006
S1894,Anyaa,5.597199917,-0.290012002
S146,Curve 067,5.626589775,-0.261828512
T358,Terminal Akweteman Zongo,5.615719795,-0.237439498
S2192,Ebony 254,5.605179787,-0.204478994
S2424,Appiah Danquah,5.546730042,-0.246116996
S945,Abossey Okai,5.558859825,-0.229855493
S1389,Adikansa Agya,5.591239929,-0.206246004
S423,Mobil 094,5.68915987,-0.284162998
S5951,Bajohe,5.64015007,-0.348928988
S4151,Presby,5.585589886,-0.106144004
S4734,Banku Junction,5.553359985,-0.247990996
S2775,Kaneshie Station (New Town),5.584199905,-0.208174005
S1338,Agbajina,5.588079929,-0.207514003
S2337,Roof Top,5.609069824,-0.238132998
S1755,Weija Junction 1,5.556550026,-0.303539991
S1202,North Kaneshie Melcom,5.588490009,-0.227391005
S4296,Times,5.567510128,-0.222911999
S6240,Cart,5.59871006,-0.223876998
S2592,Abordwe,5.535369873,-0.242080003
S3953,Bolster,5.606289864,-0.188777
T1127,Terminal Atico,5.573550224,-0.249583505
S369,Market 088,5.658329964,-0.275740474
S4560,Shalom Shalom,5.527689934,-0.235613003
S3169,Light House 336,5.617219925,-0.261209011
S4284,Ebenezer 260,5.5295434,-0.269861341
S1892,Odorgonno,5.590229988,-0.284215003
T20,Terminal Abeka lapaz,5.600550175,-0.238787994
S4360,Traffic Light 447,5.53387022,-0.237301007
S3752,Barn Yard,5.584760189,-0.274791986
S892,Bridge 521,5.526350021,-0.249026
S1424,Love Community,5.57723,-0.233804
S1435,Vodafone Office 203,5.57285,-0.216439